,축제명,주소,연락처,시작일,종료일,위도,경도
0,《MMCA 이건희컬렉션 특별전: 한국미술명작》,서울특별시 종로구 삼청로 30,02-3701-9500,2021-07-21,2022-03-13,37.5788361778,126.9800649747
1,가무악극으로 만나는 토요 상설공연,충청남도 부여군 규암면 백제문로 388,041-832-5765,2021-03-06,2021-10-30,36.3048428766,126.8997016069
2,가산수피아 '봄의 정원',경상북도 칠곡군 가산면 학하들안2길 105,054-971-9861,2021-03-20,2021-06-30,36.0861545517,128.4850691574
3,가족끼리 빙어체험 2021,경기도 양평군 단월면 곱다니길 55-2 수미마을 방문객센터,031-775-5205,2021-01-16,2021-12-31,37.5145504080,127.6574135888
4,가족끼리딸기 캠피닉,경기도 양평군 단월면 곱다니길 55-2,031-775-5205,2021-03-01,2021-06-06,37.5144948588,127.6573663730
5,가족오페라 <마술피리> 2021,대구광역시 북구 호암로 15,053-666-6170,2021-02-25,2021-02-28,35.8835072863,128.5922570230
6,감악산 꽃&별 여행,거창군 신원면 덕산리 산 57,055-940-3390,2021-09-24,2021-10-17,35.5912836573,127.9163995903
7,강동북페스티벌,온라인 개최,"강일 427-4004, 성내 471-0044, 해공 478-9656, 암사 429-0476, 천호 488-7223, 둔촌 489-6557",2021-10-12,2021-10-16,37.5512675743,127.1573829418
8,강동선사문화축제,서울특별시 강동구 성내로 25,02-3425-8530,2021-10-08,2021-10-10,37.5301777510,127.1237865998
9,강릉 단오제,강원도 강릉시 단오장길 1,033-641-1593,2021-06-10,2021-06-17,37.7482134974,128.8950169869
10,강아지숲 도그페스타(DOG FESTA) 2021,강원도 춘천시 남산면 충효로 437,033-913-1400,2021-10-02,2021-10-03,37.7364886333,127.6620400154
11,강원그린박람회,강원도 춘천시 평화로 26,033-260-9320,2021-08-06,2021-08-08,37.8813589518,127.7184944906
12,강진청자축제,온라인 개최,061-430-3352,2021-10-01,2021-10-07,34.5075226164,126.8011114048
13,거창 크리스마스트리문화축제 2021,경상남도 거창군 거창읍 중앙로 103,070-8809-9182,2020-12-13,2021-02-14,35.6866949586,127.9095393091
14,겨울공주 온라인 군밤축제 2021,온라인개최,041-840-8111,2021-01-29,2021-01-31,36.4666363013,127.1075869625
15,경기곤충페스티벌,경기도 화성시 병점중앙로 283-33,031-229-5905,2021-10-01,2021-10-10,37.2225202975,127.0429415014
16,경기상상캠퍼스 문화축제 '리틀포레',경기도 수원시 권선구 서둔로 166,031-296-1980,2021-06-19,2021-11-06,37.2668308007,126.9850066316
17,경기인형극제 in Suwon,경기도 수원시 권선구 서둔로 166,070-4681-0675,2021-09-03,2021-10-24,37.2668308007,126.9850066316
18,경기정원문화박람회,경기도 구리시 장자호수길 125,02-6401-9715,2021-10-08,2021-10-24,37.5860743808,127.1428527166
19,경남 고성 옥수수축제,경상남도 고성군 동해면 봉암3길 5,055-672-5155,2021-07-01,2021-07-10,35.0096327799,128.3993560025
20,경남고성공룡세계엑스포,경상남도 고성군 회화면 당항만로 1116,055)670-3881~6,2021-10-01,2021-11-07,35.0581190364,128.4007962584
21,경복궁 별빛야행,서울특별시 종로구 사직로 161,02-3210-4806,2021-05-06,2021-05-27,37.5788944508,126.9770319156
22,경복궁 생과방,서울특별시 종로구 사직로 161 경복궁,"02-3210-4807, 02-3210-3506",2021-04-15,2021-06-30,37.5788944508,126.9770319156
23,경복궁 시식공감,서울특별시 종로구 사직로 161,02-3210-4806,2021-05-01,2021-05-29,37.5816246501,126.9748959222
24,경복궁 야간 특별관람,서울특별시 종로구 사직로 161,02-3700-3900~1,2021-04-01,2021-05-30,37.5816246501,126.9748959222
25,경산자인단오제,경상북도 경산시 자인면 계정길 68,053-856-5765,2021-06-12,2021-06-14,35.8182688829,128.8200110253
26,경상남도연극제,경상남도 통영시 남망공원길 29,055-746-7413,2021-03-16,2021-03-27,34.8423603636,128.4286550814
27,계룡산 산신제,충청남도 공주시 계룡면 양화리 165번지,010-5807-4344,2021-04-26,2021-04-27,36.3336333187,127.1771648605
28,계촌 클래식 축제,온라인 개최,02-966-6563,2021-08-21,2021-08-22,37.4530112700,128.3039208605
29,"고궁음악회「고궁의 숲, 무용을 만나다」",서울특별시 종로구 창경궁로 185,02-2270-1132,2021-06-12,2021-06-27,37.5776087901,126.9938137563
30,고니골빛축제 2021,강원도 원주시 호저면 호저로 1277-43,033-732-9586,2020-11-20,2021-02-14,37.4800230785,127.9154662381
31,고성군민의날 및 수성문화제,강원도 고성군 간성읍 수성로 87,033-680-3368,2021-09-15,2021-09-16,38.3761682935,128.4652585958
32,고양가을꽃축제,경기도 고양시 일산동구 호수로 595,031-908-7750~2,2021-10-01,2021-10-10,37.6538792239,126.7686654803
33,고양국제무용제,경기도 고양시 일산동구 중앙로 1286,031-918-5757,2021-09-29,2021-10-03,37.6612006889,126.7740064529
34,고양시 트리니팅 프로젝트 2021,경기도 고양시 일산동구 중앙로 1271-1,031-8075-3003 / 3004,2020-12-30,2021-02-28,37.6595397482,126.7727121731
35,고양호수예술축제,경기도 고양시 일산동구 호수로 595,031-960-9684,2021-09-25,2021-10-10,37.6538792239,126.7686654803
36,고창 라벤더 축제,전라북도 고창군 공음면 청천길 41-27,063-561-6907,2021-05-28,2021-07-11,35.3736427850,126.5350719884
37,고창 복분자와 수박축제,전라북도 고창군 고창읍 녹두로 1265,063-560-2531,2021-06-18,2021-06-22,35.4347661324,126.6841072139
38,고창 청농원 핑크뮬리가든,전라북도 고창군 공음면 청천길 41-27,063-561-6907,2021-09-18,2021-11-07,35.3736427850,126.5350719884
39,고창 핑크뮬리 축제,전라북도 고창군 부안면 복분자로 307,010-8675-7898,2021-09-16,2021-11-07,35.5027352266,126.6264384089
40,공주 문화재야행,충청남도 공주시 제민천길 일원,041-840-8204,2021-11-05,2021-11-07,36.4544351759,127.1219804447
41,관악강감찬축제,서울특별시 관악구,02) 828-5763,2021-10-14,2021-10-17,37.4782084678,126.9514981970
42,광주 프린지페스티벌,광주광역시 남구 천변좌로338번길 7,062-670-7983,2021-07-03,2021-10-02,35.1479801537,126.9086639556
43,광주국제차문화전시회,광주광역시 서구 상무누리로 30,062)611-2256,2021-10-21,2021-10-24,35.1467180358,126.8405588979
44,광주문화재야행 '동구 달빛걸음',광주광역시 동구 서남로 1,062-608-8919,2021-09-03,2021-09-17,35.1455501169,126.9231210717
45,광주비엔날레 2021,광주광역시 북구 비엔날레로 111,062-608-4114,2021-04-01,2021-05-09,35.1825648257,126.8902647155
46,광주비엔날레미디어파사드 특별전,광주광역시 북구 비엔날레로 111,062-410-8228,2021-04-02,2021-05-31,35.1826203741,126.8902591590
47,괴산고추축제,온라인개최,괴산군청 043-830-3461~3,2021-08-26,2021-09-15,36.8153806672,127.7866969589
48,괴산대학찰옥수수축제,충청북도 괴산군 장연면 충민로 1675,043-830-3463,2021-07-24,2021-07-25,36.8712768785,127.9304519249
49,구로청소년축제 2021,온라인개최,02-860-2140,2020-12-30,2021-01-27,37.4955247594,126.8875507563
50,국가식품클러스터 식품대전,전라북도 익산시 왕궁면 국가식품로 100,"<a href=""http://www.if-festival.or.kr"" target=""_blank"" title=""새창: 홈페이지로 이동"">www.if-festival.or.kr",2021-09-08,2021-09-09,35.9803053697,127.0830409974
51,국립민속박물관 우리민속한마당 2021,서울특별시 종로구 삼청로 37,02-3704-3114,2021-01-01,2021-12-31,37.5819663482,126.9788705506
52,국립민속박물관 정월대보름 한마당 2021,서울특별시 종로구 삼청로 37,"02-3704-3142, 3127",2021-02-01,2021-03-03,37.5819774581,126.9788594400
53,국립진주박물관 설맞이 문화행사,경상남도 진주시 남강로 626-35,055-740-0693,2021-01-25,2021-01-27,35.1889652253,128.0768878142
54,국제농업박람회,전라남도 나주시 산포면 세남로 1508,061-339-9200,2021-10-21,2021-10-31,35.0225235706,126.8317683212
55,국제뿌리산업전시회,광주광역시 서구 상무누리로 30,062-611-2216,2021-11-18,2021-11-20,35.1467180358,126.8405588979
56,국제전기자동차엑스포,제주특별자치도 서귀포시 중문관광로 224,064-702-1580,2021-09-07,2021-09-10,33.2413184587,126.4245292209
57,국제종자박람회,온라인개최,063-219-8831~5,2021-10-06,2021-11-02,35.8558248270,126.9058794948
58,국제차문화대전,서울특별시 강남구 영동대로 513,02-6000-8000,2021-07-29,2021-08-01,37.5112648981,127.0594124394
59,국제해양영화제,부산광역시 해운대구 수영강변대로 120,051-790-9413,2021-07-22,2021-07-25,35.1711196124,129.1271521198
60,군산문화재야행,전라북도 군산시 구영2길 9,063)454-3922,2021-09-09,2021-09-11,35.9877258361,126.7079326463
61,궁디팡팡 캣페스타,서울특별시 강남구 남부순환로 3104,070-8866-6668,2021-12-03,2021-12-05,37.4957363721,127.0719811806
62,궁중문화축전,서울특별시 종로구 사직로 161,02-3210-4684,2021-10-16,2021-10-31,37.5788222356,126.9769930325
63,"근현대사 추리여행, '사라진 열쇠를 찾아라'",서울특별시 강북구 삼양로 561,02-901-6213,2021-09-01,2021-12-31,37.6530781245,127.0122877055
64,금산 삼계탕 축제,충청남도 금산군 금산읍 인삼광장로 30,041-750-4147,2021-07-10,2021-07-11,36.1002101508,127.5012171957
65,기획오페라 <사랑의 묘약> 2021,대구광역시 북구 호암로 15,053-666-6170,2021-01-28,2021-01-30,35.8835072863,128.5922570230
66,김대건 신부 탄생 200주년 기념행사 2021,충청남도 당진시 우강면 솔뫼로 132,041-350-3776,2021-08-14,2021-08-22,36.8201094630,126.7860785910
67,김제 모악산축제,온라인개최,063-540-3190,2021-04-09,2021-04-11,35.7188288389,127.0402488564
68,김제문화재야행,전라북도 김제시 중앙로 40,063-540-3517,2021-09-03,2021-09-05,35.8036358962,126.8808525221
69,김천나이트투어 '직지골야행',경상북도 김천시 대항면 직지사길 95,054-434-4336,2021-06-19,2021-10-16,36.1171145622,128.0097381838
70,김포 음악불꽃크루즈 2021,경기도 김포시 고촌읍 아라육로270번길 74,1522-8905,2021-01-01,2021-12-31,37.5976583182,126.7871209331
71,김해 문화재야행,경상남도 김해시 가락로93번길 26,055-320-1205,2021-09-30,2021-10-02,35.2349050783,128.8772665825
72,꼼지락(樂)푸펫씨어터,경기도 김포시 김포한강2로23번길 72,031-996-7382,2021-10-01,2021-10-10,37.6402403400,126.6796212238
73,꽃보다 하모니,대구광역시 중구 대봉동 6-11,053-255-5213,2021-05-29,2021-05-29,35.8603268485,128.6069813718
74,나라꽃 무궁화 전국축제,세종특별자치시 연기면 수목원로 136,02-6358-7775~6,2021-08-13,2021-08-15,36.4981108410,127.2858062335
75,나를 사랑한 버스커 season2,대구광역시 중구 달구벌대로 2232,053-255-5213,2021-04-24,2021-04-24,35.8618461284,128.6073979595
76,낙동강세계평화문화대축전,경북 칠곡군 석적읍 중지리 552,054-979-6100~5,2021-10-15,2021-10-17,36.0182857122,128.4011395826
77,난타 (명동),서울특별시 중구 명동길 26,02-739-8288,2021-01-01,2021-12-31,37.5634463660,126.9837456304
78,남간정사 우암야행,대전광역시 동구 충정로 53,1599-9210,2021-09-25,2021-10-11,36.3482560780,127.4589975829
79,남도음식문화큰잔치,전라남도 여수시 박람회길 1,061-286-5772,2021-10-15,2021-10-17,34.7522251119,127.7465197232
80,남산골 세시절기 축제 정월대보름 2021,온라인개최,02-2261-0517,2021-02-11,2021-02-26,37.5584387906,126.9935365470
81,남원 춘향제,온라인개최,063-620-5787,2021-05-16,2021-05-19,35.4029483014,127.3799380290
82,"남이섬 ""Ateliê : 4Room - 포르투갈 작가들의 숲속 공방""",강원도 춘천시 남산면 남이섬길 1,031-580-8193,2021-04-24,2021-09-05,37.7901798790,127.5261480243
83,남이섬 '한스 크리스티안 안데르센상 도서전 : 책과 어린이를 하나로' 2021,강원도 춘천시 남산면 남이섬길 1,남이섬교육문화그룹 031-580-8193,2020-10-09,2021-10-31,37.7901798790,127.5261480243
84,네이처파크 미라클크리스마스 2020,대구광역시 달성군 가창면 가창로 891,1688-8511,2020-11-21,2021-01-03,35.7881605357,128.6353392148
85,네이처파크 스윗윈터페스티벌 2021,대구광역시 달성군 가창면 가창로 891,1688-8511,2021-01-04,2021-02-14,35.7881605357,128.6353392148
86,네이처파크 플라워 페스티벌,대구광역시 달성군 가창면 가창로 891,1688-8511,2021-04-10,2021-06-06,35.7881605357,128.6353392148
87,네이처파크 할로윈페스티벌<호박마녀의 초대>,대구광역시 달성군 가창면 가창로 891,1688-8511,2021-09-18,2021-11-07,35.7881605357,128.6353392148
88,노 모어 플라스틱(2021 NO MORE PLASTIC),서울특별시 성동구 왕십리로 63,010-4667-0417,2021-06-03,2021-06-06,37.5436136344,127.0435962960
89,논산 강경젓갈축제,온라인 개최,041-746-5902,2021-10-13,2021-10-17,36.1575310871,127.0097206525
90,논산딸기축제 2021,온라인개최,041-746-8386~8,2021-02-24,2021-02-28,36.2092819866,127.0819933696
91,늘근도둑 이야기,서울특별시 종로구 대학로12길 64,02-3672-0900,2021-01-01,2021-12-31,37.5811613326,127.0036933107
92,달성대구현대미술제,대구광역시 달성군 다사읍 강정본길 57,053-659-4292,2021-09-03,2021-10-03,35.8411652970,128.4650638527
93,대구 꽃박람회,대구광역시 북구 엑스코로 10,053-601-5239,2021-05-27,2021-05-30,35.9070383402,128.6131378604
94,대구 달성토성마을 골목축제,대구광역시 서구 국채보상로81길 43,053-663-4256,2021-04-24,2021-04-24,35.8758161670,128.5747198936
95,대구국제마라톤대회,대구광역시 북구 연암로 40,053-355-3872~3,2021-04-01,2021-05-02,35.8925536396,128.6006893617
96,대구국제뮤지컬페스티벌,온라인개최,053-622-1945,2021-06-18,2021-07-05,35.8834822890,128.5922514695
97,대구국제오페라축제,대구광역시 북구 호암로 15,053-666-6000,2021-09-10,2021-11-07,35.8834461788,128.5920987054
98,대구단편영화제,대구광역시 중구 서성로13길 68-1,053-629-4424,2021-08-25,2021-08-30,35.8722139572,128.5834164502
99,대구도시농업박람회,대구광역시 수성구 달구벌대로 3170,"<a href=""http://ua-daegu.com"" target=""_blank"" title=""새창:대한민국도시농업박람회 홈페이지로 이동"">http://ua-daegu.com</a",2021-10-07,2021-10-10,35.8329539154,128.7015654749
100,대구패션페어 2021,대구광역시 북구 엑스코로 10,053-721-7432,2021-08-27,2021-08-29,35.9070383402,128.6131378604
101,대전ART마임페스티벌,대전광역시 중구 중앙로 101,042-257-1231,2021-10-01,2021-10-02,36.3267634148,127.4209793431
102,대전청년주간,대전광역시 서구 갈마중로30번길 67,070-4267-6881,2021-09-10,2021-09-13,36.3448632715,127.3730470270
103,대전통합과학관광(DST),대전광역시 유성구 대덕대로512번길 30,02-2179-5132,2021-09-27,2021-12-31,36.3788067615,127.3815647884
104,대학로 거리공연축제,서울특별시 종로구 대학로8길 1,02-741-4188,2021-05-28,2021-05-30,37.5809974394,127.0023906561
105,대한민국 국악제,충청남도 공주시 고마나루길 5,02) 744-8051,2021-10-09,2021-10-14,36.4602148885,127.1117256535
106,대한민국 국제요리&제과경연대회,서울특별시 서초구 강남대로 27 AT Center 제 2전시장,"02-802-7666, 7669",2021-06-03,2021-06-06,37.4672141004,127.0396016001
107,대한민국 국제해양레저위크(KIMA WEEK),부산광역시 수영구 광안해변로 219,051-760-1130,2021-08-20,2021-08-29,35.1538269450,129.1185505648
108,대한민국 독서대전,부산광역시 북구 낙동대로1570번길 33,051-309-4944,2021-02-01,2021-12-31,35.1972252740,128.9904660788
109,대한민국 목재산업 박람회(WOOD FAIR 2021),서울특별시 강남구 영동대로 513,02-6404-0166,2021-10-20,2021-10-23,37.5117148467,127.0594429796
110,대한민국 무형문화재대전,전라북도 전주시 완산구 서학로 95,02-3011-2155,2021-10-08,2021-10-17,35.8096094714,127.1596803132
111,대한민국 문화의 달 행사(충남),충청남도 홍성군 홍북읍 충남대로 21,041)635-3812,2021-10-15,2021-10-17,36.6592982402,126.6729209113
112,대한민국 청년미술축제,서울특별시 송파구 백제고분로 270,070-7938-5480,2021-07-16,2021-07-30,37.5022777168,127.0963010045
113,대한민국무용대상,서울특별시 양천구 목동서로 225,02-744-8066,2021-09-10,2021-09-10,37.5271541181,126.8707958384
114,대한민국연극제 in 안동·예천,경상북도 안동시 축제장길 66,054-855-0039,2021-07-17,2021-08-08,36.5594329297,128.7251066358
115,대한민국향토식문화대전(&남북음식문화축제),서울특별시 서초구 강남대로 27,02-511-1540,2021-11-12,2021-11-14,37.4672141004,127.0396016001
116,더현대 플로깅 Heart for Dog,서울특별시 영등포구 여의대로 108,070-7575-2352,2021-10-16,2021-10-31,37.5259691729,126.9283267400
117,덕수궁 왕궁수문장교대의식,서울특별시 중구 세종대로 99,다산콜센터 02-120,2021-01-01,2021-12-31,37.5650460435,126.9761046145
118,덕수궁 풍류,서울특별시 중구 세종대로 99,02-2270-1244,2021-05-01,2021-05-09,37.5658042673,126.9749158128
119,도봉산 페스티벌,도봉산 입구,02-908-2914,2021-10-16,2021-10-17,37.6787451451,127.0434535747
120,도봉옛길 문화제,서울특별시 도봉구 도봉로 552,02-905-4026,2021-10-02,2021-10-09,37.6541590259,127.0384686195
121,도봉한글잔치,서울특별시 도봉구 해등로32가길 16,02-905-4026,2021-10-09,2021-10-09,37.6603469037,127.0222976961
122,도솔산지구 전투전승행사,강원도 양구군 양구읍 박수근로 366-24,033-480-2229,2021-06-19,2021-06-19,38.1042324178,127.9830220431
123,동강국제사진제,강원도 영월군 영월읍 영월로 1909-10,033-375-4554,2021-07-16,2021-09-19,37.1819788343,128.4615147283
124,동아시아문화도시 순천,전라남도 순천시 국가정원1호길 47,032-567-4075,2021-05-14,2021-11-20,37.4476825423,126.7000664030
125,드라이브스루 문경 오미자축제,경상북도 문경시 문경읍 문경대로 2426,054-571-7677,2021-09-17,2021-09-19,36.7420889505,128.0826336405
126,라베니체페스티벌,경기도 김포시 김포한강2로23번길 72,031-996-7382,2021-10-09,2021-10-10,37.6402403400,126.6796212238
127,로봇융합페스티벌,대전광역시 유성구 대덕대로 480,042-250-1341,2021-09-24,2021-09-26,36.3772070293,127.3863644022
128,롯데월드 호러 할로윈 : The Escape,서울특별시 송파구 올림픽로 240,1661-2000,2021-09-10,2021-11-21,37.5112350469,127.0983644514
129,리얼리티 러브 홀림픽,서울특별시 마포구 양화로 161,02-324-9137,2021-05-01,2021-05-29,37.5569904785,126.9233374302
130,마노르블랑 동백스케치 동백꽃축제 2021,제주특별자치도 서귀포시 안덕면 일주서로2100번길 46,064-794-0999,2020-11-25,2021-02-14,33.2548510403,126.2949957149
131,마노르블랑 수국축제,제주특별자치도 서귀포시 안덕면 일주서로2100번길 46,064-794-0999,2021-04-12,2021-08-31,33.2580867635,126.2930374799
132,만해축전,강원도 인제군 북면 만해로 91,033-461-1588,2021-08-07,2021-10-30,38.1862375638,128.3166085986
133,명량대첩축제 온라인 개최,전라남도 해남군 문내면 관광레저로 12-36,061-286-5265,2021-09-03,2021-09-05,34.5740849043,126.3116750901
134,명주인형극제 2021,강원도 강릉시 경강로2021번길 9-1,033-823-3221,2021-08-11,2021-08-15,37.7503881446,128.8897923899
135,목포항구축제,전라남도 목포시 삼학로92번길 68,061-270-8441,2021-10-14,2021-10-17,34.7828349612,126.3922741039
136,무등울림,광주광역시 동구 의재로 222,062-670-8525,2021-11-12,2021-11-14,35.1336797291,126.9523771168
137,무안연꽃축제,온라인 개최,061-450-5114,2021-08-18,2021-08-22,34.8601285157,126.5298267525
138,무안황토갯벌축제,전라남도 무안군 해제면 용산길 140,061-450-5472,2021-06-23,2021-06-27,35.1038921844,126.3319661146
139,무예24기 시범공연,경기도 수원시 팔달구 정조로 825,수원시립공연단(031-267-1644),2021-03-02,2021-12-31,37.2816684780,127.0134508573
140,무주산골영화제,전라북도 무주군 무주읍 당산리 1118,063-245-6400,2021-06-03,2021-06-13,36.0026741087,127.6615055635
141,문경달빛사랑여행,경상북도 문경시 문경읍 문경대로 2426,054-571-7677,2021-05-22,2021-07-24,36.7420889505,128.0826336405
142,문경사과축제,경상북도 문경시 문경읍 문경대로 2426,054-571-7677,2021-10-16,2021-10-31,36.7420889505,128.0826336405
143,문경찻사발축제,경상북도 문경시 문경읍 문경대로 2426,054-571-7677,2021-10-01,2021-10-10,36.7420889505,128.0826336405
144,"문화로 토닥토닥 ""찾아가는 공연""",온라인개최,찾아가는공연 운영사무국 (02-3443-2695),2021-04-25,2021-05-05,37.5508549625,126.9167298722
145,"물총부대, 더위와의 전쟁",경기도 용인시 기흥구 민속촌로 90,031-288-0000,2021-07-03,2021-08-22,37.2594535228,127.1205723175
146,뮤직드라마 당신만이,서울특별시 종로구 이화장길 26,070-8245-2602,2021-01-01,2021-12-31,37.5766424167,127.0039128630
147,미술주간,서울특별시 종로구 삼청로 30,02-2098-2930,2021-10-07,2021-10-17,37.5786500878,126.9800038741
148,미추홀 윈터마켓 (Winter Market) 2020,인천광역시 미추홀구 주안로 95-19,"032)899-7423, 032)899-7424",2020-12-05,2021-01-31,37.4650357377,126.6806176942
149,밀양 무형문화재 주말 상설공연,경상남도 밀양시 내일중앙2길 19,"055)354-3767, 351-3767",2021-04-10,2021-10-24,35.4970344470,128.7532369100
150,백제문화제 「제67회 백제문화제」,충청남도 공주시 금벽로 368,041-635-6980,2021-09-25,2021-10-03,36.4702612354,127.1274545269
151,베어트리파크 철쭉제,세종특별자치시 전동면 신송로 217,044)863-2220,2021-04-10,2021-05-09,36.6704147109,127.2095361586
152,벨기에 페스티벌,서울특별시 종로구 인사동길 7,02-749-0381,2021-10-21,2021-10-24,37.5716149173,126.9868617818
153,벽초지수목원 국화축제,경기도 파주시 광탄면 부흥로 242,031-957-2004,2021-09-25,2021-11-07,37.8004973858,126.8754182294
154,벽초지수목원 튤립축제,경기도 파주시 광탄면 부흥로 242,031-957-2004,2021-04-07,2021-05-05,37.8005668228,126.8754543355
155,별빛정원우주 365일 별빛축제 2021,경기도 이천시 마장면 덕이로154번길 287-76,031-645-0002,2021-01-01,2021-12-31,37.2412993636,127.3897540042
156,보곡산골 산꽃여행,충청남도 금산군 군북면 자진뱅이길 39,041-750-4147,2021-04-10,2021-04-18,36.1943922555,127.5676115121
157,보물섬 마늘&한우 축제,경상남도 남해군 남해읍 남해대로 2745,055-864-4515,2021-06-24,2021-06-28,34.8319688358,127.8991571146
158,보신각 상설타종행사,서울특별시 종로구 종로 54,02-2133-2641,2021-01-01,2021-12-31,37.5697984025,126.9835621340
159,복사골예술제,온라인개최,032-325-1566,2021-05-04,2021-05-14,37.5035799926,126.7659810559
160,봄 패밀리 페스티벌,경상북도 경주시 경감로 614,054-748-3011,2021-05-01,2021-05-09,35.8298874643,129.2882640602
161,봄날愛 비긴어게인 2021,대구광역시 중구 대봉동 6-11,053-255-5123,2021-02-27,2021-02-27,35.8603268485,128.6069813718
162,봉자페스티벌,경상북도 봉화군 춘양면 춘양로 1501,054-679-1000,2021-07-22,2021-08-15,37.0081780294,128.8299924699
163,부산 국제보트쇼,부산광역시 해운대구 APEC로 55,051-740-8600,2021-04-23,2021-04-25,35.1691116738,129.1363347095
164,부산 낙동강 유채꽃축제,비대면개최,051-501-6051,2021-04-01,2021-04-30,35.2132567428,128.9867798506
165,부산 마이스페스티벌,부산광역시 해운대구 APEC로 55,051-740-7821,2021-04-21,2021-04-23,35.1691116738,129.1363347095
166,부산국제광고제(AD STARS),부산광역시 해운대구 센텀중앙로 97,051-623-5539,2021-08-25,2021-08-27,35.1751552233,129.1245494579
167,부산국제단편영화제,부산광역시 해운대구 수영강변대로 120,051-742-9600,2021-04-21,2021-04-26,35.1713084771,129.1269826847
168,부산국제무용제,부산광역시 해운대구 달맞이길62번길 47,051-868-7881~2,2021-06-04,2021-06-07,35.1580163619,129.1723763250
169,부산국제식품대전,부산광역시 해운대구 APEC로 55,02-588-2489,2021-06-23,2021-06-26,35.1689089062,129.1356514414
170,부산국제어린이청소년영화제,부산광역시 해운대구 수영강변대로 120,051-743-7652,2021-07-05,2021-07-12,35.1707752050,129.1270688034
171,부산국제연극제,온라인개최,051-802-8003,2021-06-11,2021-06-20,35.1272127941,129.0934562537
172,부산국제영화제,부산광역시 해운대구 수영강변대로 120,1688-3010,2021-10-06,2021-10-15,35.1707946470,129.1270576924
173,부산국제차공예박람회,부산광역시 해운대구 APEC로 55,051-740-7705~7,2021-06-17,2021-06-20,35.1690700054,129.1359569660
174,부산국제코미디페스티벌,부산광역시 남구 동제당로 2,051-916-8828,2021-08-20,2021-08-29,35.1341811466,129.0765630877
175,부산국제합창제,온라인개최,070-4172-0682,2021-10-21,2021-10-24,35.1707946470,129.1270576924
176,부산디자인위크,부산광역시 해운대구 APEC로 55,02-2262-7165,2021-06-17,2021-06-20,35.1691366711,129.1363402640
177,부산스토리텔링 축제 [우리동네 문화유산_수영],부산광역시 연제구 중앙대로 1217,051-505-2030,2021-09-01,2021-09-15,35.1931103961,129.0624154826
178,부산원도심골목길축제,부산광역시 중구 용두산길 37-55,051-501-6051,2021-05-21,2021-05-23,35.1009757174,129.0324650517
179,부산원아시아페스티벌,온라인개최,051-780-4144,2021-05-06,2021-05-09,35.2313022594,129.0039806357
180,부산인디커넥트페스티벌 2021,부산광역시 부산진구 중앙대로 672,010-3371-2999,2021-09-09,2021-09-30,35.1530259465,129.0596668192
181,부산커피쇼,부산광역시 해운대구 APEC로 55,02-588-2489,2021-06-23,2021-06-26,35.1690700054,129.1359569660
182,부산푸드필름페스타,부산광역시 해운대구 구남로18번길 24,051-710-6948,2021-07-02,2021-07-04,35.1619128962,129.1588135087
183,부산항축제,부산 동구 초량동 1185-47,051-501-6051,2021-06-19,2021-06-20,35.1129969360,129.0510436637
184,부안 마실축제,전라북도 부안군 부안읍 예술회관길 11,063-580-4777,2021-05-01,2021-06-30,35.7243617115,126.7255045187
185,부천국제만화축제,온라인개최,032-310-3071,2021-09-04,2021-09-12,37.5081512657,126.7424497412
186,부천국제판타스틱영화제,경기도 부천시 길주로 210,032-327-6313,2021-07-08,2021-07-18,37.5036438746,126.7660143844
187,부천생활문화페스티벌 <다락>,경기도 부천시 장말로 107,032-320-6380~6,2021-08-20,2021-08-31,37.4948363559,126.7542268168
188,부평풍물대축제2021,인천광역시 부평구 부평대로 168,032-509-7516,2021-10-13,2021-10-17,37.5071093553,126.7218516493
189,북촌한옥마을 계동마님댁 대보름 달맞이 2021,서울특별시 종로구 계동길 37,02-741-1033,2021-02-23,2021-02-23,37.5790640424,126.9863810591
190,뷰티풀 민트 라이프,서울특별시 송파구 올림픽로 424,고객문의: mintpaper@mpmg.co.kr,2021-06-26,2021-06-27,37.5194456386,127.1224425827
191,브리즈 아트페어,서울특별시 서초구 남부순환로 2406,070-8656-3303,2021-09-02,2021-09-05,37.4785900399,127.0107566806
192,비건페스타,서울특별시 강남구 남부순환로 3104,02-2223-1853,2022-02-18,2021-02-20,37.4957363721,127.0719811806
193,비엔날레 문화콘서트,광주광역시 북구 비엔날레로 111,북구청 특화마을육성과 062-410-8228,2021-07-03,2021-08-28,35.1826203741,126.8902591590
194,빛의 벙커 '반 고흐' 2020,제주특별자치도 서귀포시 성산읍 서성일로1168번길 89-17,1522-2653,2019-12-06,2021-02-28,33.4398096742,126.8990724780
195,사람사랑 생명사랑 밤길걷기 Live WALK,온라인개최,070-7727-1755,2021-09-04,2021-09-12,37.5263886632,126.9336123570
196,산림치유박람회,경상북도 영주시 봉현면 테라피로 209,054-639-3511,2021-10-08,2021-10-17,36.8578218299,128.4726010160
197,"산속등대미술관 제1회 사생대회 ""기후·환경 그리고 우리""",전라북도 완주군 소양면 원암로 82,063-245-2456,2021-05-29,2021-05-29,35.8693487272,127.2520149740
198,삼척 정월대보름제 2021,온라인개최,033-573-9882,2021-02-08,2021-02-26,37.4387321558,129.1597555361
199,서귀포문화재야행,제주특별자치도 서귀포시 남성로128번길 13,070-8990-9999,2021-10-08,2021-10-11,33.2417982612,126.5559872587
200,서대문 문화재야행,서울특별시 서대문구 연희로 248,070-7575-2351,2021-08-15,2021-09-12,37.5792770177,126.9368133493
201,"서대문, 1919 그날의 함성! 2021",온라인개최,02-360-8590,2021-02-22,2021-03-01,37.5745751240,126.9556173237
202,서울 국제 푸드 앤 테이블웨어 박람회 2021,서울특별시 서초구 강남대로 27,02-511-1540,2021-05-07,2021-05-09,37.4672141004,127.0396016001
203,서울 아시테지 겨울축제 2021,온라인개최,02-745-5862~3,2021-01-06,2021-01-24,37.5904796058,126.9988129355
204,서울 케이팝 댄스 페스티벌,서울특별시 동대문구 답십리로 72,010-3246-5710,2021-05-19,2021-05-22,37.5752683826,127.0487254857
205,서울100K (SEOUL100K),서울 중구 태평로 2가 17-3,02-516-2010,2021-10-16,2021-10-17,37.5653988094,126.9777155697
206,서울365거리공연,서울특별시 마포구 연남로1길 55,02-542-2695,2021-06-07,2021-11-30,37.5595179109,126.9204598433
207,서울국제대안영상예술페스티벌,서울특별시 마포구 와우산로35길 53,02-337-2870,2021-08-24,2021-08-24,37.5564295139,126.9278870311
208,서울국제도서전,서울특별시 성동구 연무장15길 11,02-7333-8402,2021-09-08,2021-10-16,37.5428834410,127.0590032474
209,서울국제실험영화페스티벌,서울특별시 마포구 월드컵로 74,02-3141-1841,2021-09-09,2021-09-16,37.5558320544,126.9107358337
210,서울국제여성영화제,서울특별시 마포구 월드컵로 161,02-583-3598,2021-08-26,2021-09-01,37.5620201117,126.9044306782
211,서울국제작가축제(Seoul International Writers' Festival),온라인 개최,siwf@klti.or.kr,2021-10-08,2021-10-24,37.5152867161,127.0628786765
212,서울국제주류박람회 2021,서울특별시 강남구 영동대로 513 코엑스 B홀,02-761-2518,2021-07-02,2021-07-04,37.5117592813,127.0591874466
213,서울도시농업박람회,서울시 양천구 신정동 871-2,02-6358-7775,2021-05-27,2021-05-30,37.5205772468,126.8787480766
214,서울드럼페스티벌,서울특별시 중구 동호로 241,070-4272-7330,2021-05-28,2021-05-29,37.5582390522,127.0068047884
215,서울디자인페스티벌,서울특별시 강남구 영동대로 513,02-2262-7200,2021-12-22,2021-12-26,37.5117148467,127.0594429796
216,서울라이트(SEOUL LIGHT),서울특별시 중구 을지로 281,02-2133-2704,2021-03-26,2021-04-01,37.5675991318,127.0099486810
217,서울랜드 겨울 빛축제 2021,경기도 과천시 광명로 181,02-509-6000,2020-11-27,2021-03-01,37.4366477965,127.0169239697
218,서울리빙디자인페어,서울특별시 강남구 영동대로 513,02-2262-7152,2021-05-26,2021-05-23,37.5117148467,127.0594429796
219,서울모터쇼 (Seoul Motor Show) 2021,경기도 고양시 일산서구 킨텍스로 217-60,02-3660-1894,2021-11-25,2021-12-05,37.6689909419,126.7455782754
220,서울무용제,서울특별시 종로구 대학로8길 7,02-744-8066,2021-11-10,2021-11-28,37.5811724288,127.0029794866
221,서울세계도시문화축제,서울특별시 중구 세종대로 110,02-786-7518,2021-10-01,2021-10-10,37.5666625635,126.9784043599
222,서울스트리트댄스페스티벌,서울특별시 마포구 증산로 87,02-2272-1917,2021-08-07,2021-08-07,37.5703995248,126.8950451862
223,서울시민연극제,서울특별시 관악구 신림로3길 35,02-765-7500,2021-08-24,2021-09-12,37.4676512424,126.9448852069
224,서울연극제,서울특별시 종로구 대학로8길 7,02-765-7500,2021-04-30,2021-05-30,37.5811724288,127.0029794866
225,서울영상광고제 2021,온라인개최,02-3447-0101,2021-01-05,2021-01-05,37.5665986816,126.9783710306
226,서울일러스트레이션페어V.11,서울특별시 강남구 봉은사로63길 35,02-2062-8601,2021-08-25,2021-08-28,37.5136810472,127.0462413481
227,서울장미축제,서울특별시 중랑구 중랑천로 332,02-3407-6531,2021-05-13,2021-05-31,37.6143448429,127.0735276696
228,서울청소년연극축제,서울특별시 중구 세종대로19길 16,02-765-7500,2021-07-16,2021-07-24,37.5667736284,126.9765823002
229,서울카페쇼 2021,서울특별시 강남구 영동대로 513,02-6000-6720,2021-11-10,2021-11-13,37.5117592813,127.0591874466
230,서울프린지페스티벌,서울특별시 마포구 증산로 87,02-325-8250,2021-08-04,2021-08-29,37.5731297249,126.8929203036
231,서점의 날,서울특별시 구로구 가마산로25길 9-3,02-927-1437,2021-11-05,2021-11-11,37.4965969039,126.8902254828
232,서커스 캬바레 & 캬라반,서울특별시 광진구 아차산로 710,02-6203-2537,2021-09-03,2021-09-26,37.5558245690,127.1125313388
233,석촌호수 벚꽃축제,온라인개최,02-2147-2800,2021-04-02,2021-04-11,37.5111851145,127.1017724761
234,설빙송어빙어축제 2021,경기도 가평군 청평면 강변로 17,031-584-2755,2020-12-31,2021-02-25,37.7346564825,127.4133710249
235,섬 겨울꽃 랜선 축제 2020,전라남도 신안군 압해읍 수락길 330,061-240-8778,2020-12-11,2021-01-31,34.8436285971,126.2519711582
236,성남아트센터 마티네콘서트,경기도 성남시 분당구 성남대로 808,031-783-8000,2021-03-18,2021-12-16,37.4019566143,127.1292175196
237,세계 우유의 날 기념 밀크온 콘서트,서울특별시 서초구 서초대로 141-25,02-588-7202~3,2021-06-01,2021-06-01,37.4895107763,126.9985741482
238,세계유산 공주 공산성 미디어아트 '백제연화',충청남도 공주시 웅진로 280,041)852-1552~3,2021-09-24,2021-10-24,36.4652561875,127.1237188858
239,세계유산 활용프로그램 <수원화성 낭만소풍>,경기도 수원시 장안구 영화동 320-2,031-290-3573,2021-05-08,2021-10-23,37.2872039225,127.0120008348
240,세계유산축전,서울특별시 종로구 사직로 161,02-3210-4633,2021-08-13,2021-10-24,37.5788944508,126.9770319156
241,세계유산축전 수원화성,경기 수원시 장안구 영화동 320-2,031-228-1010,2021-10-02,2021-10-24,37.2872039225,127.0120008348
242,세계유산축전 안동,경상북도 안동시 도산면 도산서원길 154,054)851-7182,2021-09-04,2021-09-26,36.7279519770,128.8403748187
243,세계유산축전 - '제주 화산섬과 용암동굴',제주특별자치도 제주시 조천읍 선교로 569-36,064-710-6873,2021-10-01,2021-10-17,33.4569020299,126.7142575546
244,세미원 연꽃여행,경기도 양평군 양서면 양수로 93,031-775-1835,2021-06-21,2021-08-15,37.5409273515,127.3239403130
245,세종조치원복숭아축제,세종특별자치시 연서면 월하천로 289,044-864-2164,2021-07-26,2021-08-01,36.5726911326,127.2833738631
246,속초 음악불꽃크루즈 2021,강원도 속초시 중앙로 214-1,1522-8905,2021-01-01,2021-12-31,38.2096096416,128.5934271477
247,수문장 교대의식,서울특별시 종로구 사직로 161,02-3210-1645,2021-01-01,2021-12-31,37.5801859611,126.9767235747
248,수성못 페스티벌(SUSEONG LAKE FESTIVAL),대구광역시 수성구 무학로 112,053-666-2000,2021-10-01,2021-10-03,35.8293778245,128.6205949230
249,수원 문화재 야행,경기도 수원시 팔달구 정조로 825,031-290-3572~3575,2021-10-15,2021-10-17,37.2818712498,127.0143757682
250,수원발레축제,경기도 수원시 장안구 이목로 24-25,02-2263-4680,2021-08-16,2021-08-22,37.3097508547,126.9864802990
251,수원화성 빛의 산책로,경기도 수원시 장안구 연무동 190,031-290-3600,2021-01-01,2021-12-31,37.2874872131,127.0114425437
252,수원화성의 비밀 2021,경기도 수원시 팔달구 행궁로 11,031-290-3563,2021-01-01,2021-12-31,37.2810769133,127.0152812635
253,순천 푸드&아트 페스티벌,전라남도 순천시 감사터길 15,061-749-5502,2021-11-12,2021-11-13,34.9569365135,127.4850818730
254,스마트국토엑스포,서울특별시 강남구 영동대로 513,031-738-5170,2021-07-21,2021-07-23,37.5117592813,127.0591874466
255,시끌벅적 과학축제,서울특별시 광진구 구천면로 2,02-2204-3190,2021-04-25,2021-04-25,37.5464088823,127.1062266254
256,"시민청 6-8월 문화예술 프로그램 <여름, 시민청>",서울특별시 중구 세종대로 110,공연 02-739-7331<br> 미디어아트·체험 02-739-5811<br> 장터 02-739-5226,2021-06-04,2021-08-27,37.5666625635,126.9784043599
257,시크릿,서울특별시 종로구 동숭길 72,02-747-7407,2021-01-01,2021-12-31,37.5814363108,127.0042904706
258,신안 국제 문페스타(Shinan International Moon Soon Deuk Festa),전라남도 신안군 자은면 자은서부2길 508-65,061-243-9786,2021-10-23,2021-10-24,34.8779816821,125.9959235736
259,신안 섬수국축제,전남 신안군 도초면 지남리,061-240-8454,2021-06-18,2021-06-27,34.6815388662,125.9285452858
260,실버문화페스티벌,온라인개최,02-719-9062,2021-10-18,2021-10-29,37.5570966421,126.9579759370
261,실향민문화축제,"강원도 속초시 청호동 550-13, 아바이마을",033-636-0670,2021-06-23,2021-06-27,38.2037159039,128.5944827913
262,아라뱃길 꿈잇水다 청년 이야기 위크,온라인개최,031-999-7834,2021-10-23,2021-10-28,37.5977083101,126.7869848326
263,아세안 영화주간 - 온:택트,서울특별시 강남구 논현로 848,aseancw@gmail.com,2021-03-12,2021-03-25,37.5246239091,127.0288731753
264,아시아문화포럼,온라인개최,062-670-7435,2021-10-13,2021-10-13,35.1467693755,126.9202851804
265,아시아프,서울특별시 마포구 와우산로 94,02-724-6324,2021-07-27,2021-08-22,37.5512772937,126.9255540555
266,아시테지 국제여름축제,서울특별시 종로구 동숭길 114,02-745-5863,2021-07-17,2021-08-08,37.5832416489,127.0038654579
267,아이가 행복입니다,서울특별시 송파구 올림픽로 300,1855-3164,2021-09-10,2021-09-11,37.5126099637,127.1025668077
268,아침고요 야생화전시회,경기도 가평군 상면 수목원로 432,1544-6703,2021-03-20,2021-04-08,37.7439487308,127.3525096320
269,아침고요수목원 들국화전시회,경기도 가평군 상면 수목원로 432,1544-6703,2021-09-17,2021-10-17,37.7417489763,127.3519430810
270,아침고요수목원 무궁화전시회,경기도 가평군 상면 수목원로 432,1544-6703,2021-07-24,2021-08-22,37.7424072328,127.3519180642
271,아침고요수목원 봄나들이 봄꽃축제,경기도 가평군 상면 수목원로 432,1544-6703,2021-04-10,2021-05-19,37.7417489763,127.3519430810
272,아침고요수목원 수국전시회,경기도 가평군 상면 수목원로 432,1544-6703,2021-06-05,2021-07-04,37.7440126130,127.3525568480
273,안동 한지축제,경북 안동시 풍산읍 소산리,054-855-0471,2021-10-01,2021-10-03,36.5508635477,128.5282910352
274,안무가 매칭 프로젝트 제23회 생생 춤 페스티벌,서울특별시 종로구 대학로10길 15-15,(사)한국현대무용협회 경영기획팀 02-763-5351,2021-10-14,2021-10-17,37.5825333800,127.0028600144
275,안산별빛마을 애니멀 & 하트빌리지 빛축제 2021,경기도 안산시 상록구 수인로 1723,031-484-5050,2021-01-01,2021-12-31,37.3394480000,126.8634434286
276,안성 남사당 상설공연,경기도 안성시 보개면 남사당로 198-2,031-678-2518,2021-03-27,2021-11-27,37.0318221187,127.3101448759
277,안성두메호수빙어축제 2021,경기도 안성시 죽산면 두메호수로 90,031-674-4528,2020-12-23,2021-02-14,37.0094684960,127.4284792701
278,안성맞춤 포도축제,경기도 안성시 서운면 서운중앙길 23,031-678-3732,2021-09-12,2021-09-12,36.9430869936,127.2592519417
279,안양시민축제 <우선멈'춤'프로젝트>,온라인개최,031-687-0500,2021-10-10,2021-11-30,37.3901438629,126.9612886704
280,야외기획공연 공연재생<이자람_이방인의 노래>,강원도 춘천시 효자상길5번길 13,033-259-5824,2021-07-22,2021-07-23,37.8726962735,127.7293520927
281,양기철철 단오,경기도 용인시 기흥구 민속촌로 90,031-288-0000,2021-06-19,2021-07-11,37.2593868634,127.1205445440
282,양양문화제,강원도 양양군 양양읍 양양로 114-5,033-671-8762,2021-06-15,2021-06-15,38.0742452792,128.6164903837
283,양주 눈꽃축제 2021,경기도 양주시 장흥면 권율로 594,080-233-7766,2020-12-24,2021-02-21,37.7581595486,126.9684887063
284,양평 용문산 산나물축제,온라인개최,031-770-2096,2021-05-01,2021-05-09,37.5463286753,127.5823278077
285,에버랜드 로즈가든,경기도 용인시 처인구 포곡읍 에버랜드로 199,031-320-5000,2021-05-14,2021-06-13,37.2939343647,127.2040721101
286,에버랜드 블러드시티,경기도 용인시 처인구 포곡읍 에버랜드로 199,에버랜드 관광안내소 031-321-9393<br />에버랜드 031-320-5000,2021-09-23,2021-11-21,37.2902124898,127.1994281916
287,에버랜드 썸머워터펀,경기도 용인시 처인구 포곡읍 에버랜드로 199,031-320-5000,2021-06-18,2021-08-29,37.2924319247,127.2131685506
288,에버랜드 튤립가든,경기도 용인시 처인구 포곡읍 에버랜드로 199,031-320-5000,2021-03-26,2021-04-30,37.2924319247,127.2131685506
289,에버랜드 Winter Wishes 2021,경기도 용인시 처인구 포곡읍 에버랜드로 199,에버랜드 관광안내소 031-321-9393<br />에버랜드 031-320-5000,2020-11-20,2021-03-01,37.2924319247,127.2131685506
290,여수 음악불꽃크루즈 2021,전라남도 여수시 돌산읍 돌산로 3617-18,1522-8905,2021-01-01,2021-12-31,34.7297302429,127.7369794626
291,여우樂 페스티벌,서울특별시 중구 장충단로 59,02-2280-4114,2021-07-02,2021-07-24,37.5519729781,126.9992473208
292,여주 흥천남한강벚꽃축제,경기도 여주시 흥천면 귀백리 38-8번지 일원,031-887-3875,2021-04-09,2021-04-11,37.3480678646,127.5583690338
293,연극 라이어 (대학로),서울특별시 종로구 대학로 144,02-747-2070,2021-01-01,2021-12-31,37.5839831970,127.0020350484
294,연극 수상한 흥신소,서울특별시 종로구 대학로 128,070-8129-7420,2021-01-01,2021-12-31,37.5827166790,127.0021350751
295,연등회,서울특별시 종로구 우정국로 55,02-2011-1744∼7,2021-05-14,2021-05-30,37.5733035136,126.9815038890
296,영동대로 카운트다운 2021,온라인개최,02-751-9356,2020-12-31,2021-01-01,37.5117148467,127.0594429796
297,영동대로 K-POP콘서트,서울특별시 강남구 학동로 426,02-3423-5542,2021-10-10,2021-10-10,37.5173584213,127.0475161280
298,영동포도축제,충청북도 영동군 영동읍 영동황간로 122,043-744-8916~8,2021-08-17,2021-09-15,36.1640162222,127.7819599172
299,영등포 단오축제,서울특별시 영등포구 신길로 275,영등포문화원 02-846-0155~6,2021-06-11,2021-06-11,37.5161700211,126.9121007163
300,영등포 여의도봄꽃축제,서울특별시 영등포구 여의서로,02-2670-3114,2021-04-05,2021-04-30,37.5320321034,126.9141334174
301,영산강 서창들녘 억새축제,광주광역시 서구 서창둑길 377,062-350-4792,2021-10-08,2021-10-11,35.1384854339,126.8287823667
302,영산강 환경·문화 뎐,광주광역시 남구 승촌보길 90,061-335-0866,2021-10-16,2021-10-17,35.0660063695,126.7611512602
303,영월 김삿갓 문화제,강원도 영월군 김삿갓면 와석리 897-2,033-375-6353,2021-10-02,2021-10-02,37.0826734728,128.6021939496
304,영월 단종문화제,강원도 영월군 영월읍 제방안길 100,033-375-6353,2021-04-30,2021-05-02,37.1786125178,128.4595900002
305,영월 붉은메밀 축제,강원도 영월군 영월읍 삼옥2리 먹골마을 동강변,영월읍사무소 033-374-3002,2021-10-02,2021-10-17,37.2225807141,128.5141921347
306,영주 소백산철쭉제,경상북도 영주시 대학로 77,054)630~8706~9,2021-05-29,2021-05-30,36.8045917160,128.6147843254
307,영천 보현산 별빛축제,경상북도 영천시 화북면 별빛로 681-32,054-330-6702,2021-10-08,2021-10-10,36.1402690623,128.9964752607
308,예천국제스마트폰영화제,경상북도 예천군 풍양면 삼강리길 41,054.655.8082,2021-10-16,2021-10-17,36.5633189943,128.3003470759
309,오감만족 문경새재맨발페스티벌,경상북도 문경시 문경읍 새재로 932,053-754-7981,2021-08-21,2021-08-21,36.7615977206,128.0769835905
310,오색별빛정원전 2021,경기도 가평군 상면 수목원로 432,1544-6703,2020-12-04,2021-03-14,37.7448402954,127.3525845994
311,오크밸리 3D 라이팅쇼 '소나타오브라이트',강원도 원주시 지정면 오크밸리1길 66,033-730-3146,2021-01-01,2021-12-31,37.4346459591,127.8177986180
312,오픈미디어아트페스티벌 - 디지털 아우라,서울특별시 마포구 증산로 87,010-3456-8991,2021-09-09,2021-09-12,37.5703995248,126.8950451862
313,옥탑방고양이,서울특별시 종로구 대학로10길 24,02-764-8760,2021-01-01,2021-12-31,37.5815918348,127.0035183141
314,온·오프라인 로하스박람회,제주특별자치도 서귀포시 중문관광로 224,064-722-3288,2021-08-13,2021-08-15,33.2413184576,126.4244653377
315,온라인 거제대구수산물축제 2020,온라인개최,055-681-2233,2020-12-16,2021-01-15,34.8669130314,128.7296921278
316,온라인 영동곶감축제(장터) 2021,온라인개최,043-745-8916~8,2021-01-18,2021-02-05,36.1640606617,127.7819682486
317,온라인 합천바캉스축제,온라인 개최,055-930-4666,2021-07-26,2021-09-17,35.5667020135,128.1658199314
318,온라인으로 즐기는 지리산 산청곶감축제 2021,온라인개최,055-973-0085,2021-01-07,2021-01-17,35.2743485813,127.8365066809
319,온앤오프 보령머드축제,충청남도 보령시 대해로 897-15,041-930-0891,2021-07-23,2021-08-01,36.3045418755,126.5170387613
320,온택트 2021 강남페스티벌,서울특별시 강남구 학동로 426,02)3423-5543,2021-10-01,2021-10-10,37.5173584213,127.0475161280
321,완주 프러포즈축제,전라북도 완주군 구이면 덕천전원길 232-58,063-290-2622,2021-05-22,2021-05-23,35.7260602293,127.1361790273
322,외솔한글한마당,울산광역시 중구 병영12길 15,052-716-5007,2021-10-08,2021-10-10,35.5748534232,129.3474827915
323,우리꽃 전시회,경기도 포천시 소흘읍 광릉수목원로 415,031-540-2000,2021-09-15,2021-09-24,37.7527359115,127.1625072572
324,울산 국제수소에너지전시회 및 포럼(H2WORLD),울산광역시 울주군 삼남읍 울산역로 255,052-255-1853,2021-11-10,2021-11-12,35.5556348578,129.1311799982
325,울산 쇠부리축제,울산광역시 북구 달천철장길 58,052-293-3500,2021-10-20,2021-10-24,35.6336492470,129.3294493702
326,울산 태화루 누각 상설공연,울산광역시 중구 태화로 300,울산광역시청 문화예술과  052-229-3742,2021-09-01,2021-11-30,35.5533995305,129.3076757594
327,울산안전산업위크(SAFETY WEEK),울산광역시 울주군 삼남읍 울산역로 255,052-255-1852,2021-10-20,2021-10-22,35.5556348578,129.1311799982
328,원주 용수골꽃양귀비축제,강원도 원주시 판부면 서곡리 1632-2,033-764-4443,2021-05-15,2021-06-06,37.2868069456,127.9382587109
329,원주 청소년축제,강원도 원주시 단구로 170,033-742-9997,2021-05-29,2021-05-30,37.3364513586,127.9461148905
330,원주한지문화제,강원도 원주시 한지공원길 151,033-734-4739,2021-05-01,2021-05-30,37.3343736211,127.9353798084
331,월미도 음악불꽃크루즈 2021,인천광역시 중구 월미문화로 21,1522-8905,2021-02-01,2021-12-31,37.4764857358,126.5984970903
332,유성국화마라톤 대회,대전광역시 유성구 봉명동 1013-1,042-823-5007,2021-10-24,2021-10-24,36.3608056480,127.3592922701
333,윤봉길 평화축제,충청남도 예산군 덕산면 덕산온천로 183-5,041-338-9514,2021-04-29,2021-05-30,36.6874585328,126.6525108898
334,의정부 음악극축제,경기도 의정부시 의정로 1,031-828-5841,2021-11-05,2021-11-14,37.7334330545,127.0340500917
335,이럴때 이런음악 '해설이 있는 청소년음악회'_영산아트홀,서울특별시 영등포구 여의공원로 101,02-332-5545,2021-08-07,2021-08-08,37.5293242775,126.9249130673
336,이병주 하동 국제문학제,경상남도 하동군 북천면 이명골길 14-28,055-882-2354,2021-10-01,2021-10-01,35.0972445341,127.8942978988
337,이월드 가을축제 <인생꽃 사진관>,대구광역시 달서구 두류공원로 200,053-620-0001,2021-09-18,2021-11-30,35.8548989086,128.5648463453
338,이월드 별빛벚꽃시즌 '다시 벚꽃 피다',대구광역시 달서구 두류공원로 200,053-620-0001,2021-03-20,2021-04-04,35.8527158532,128.5665129257
339,이월드 별빛축제 2021,대구광역시 달서구 두류공원로 200,053-620-0001,2020-11-21,2021-03-01,35.8548822436,128.5648324581
340,이월드 봄꽃시즌 2 : 유채한 봄,대구광역시 달서구 두류공원로 200,053-620-0001,2021-04-17,2021-05-02,35.8548989086,128.5648463453
341,이월드 봄꽃시즌 3 : 수국아일랜드,대구광역시 달서구 두류공원로 200,053-620-0001,2021-05-01,2021-08-01,35.8548989086,128.5648463453
342,이월드 아쿠아판타지,대구광역시 달서구 두류공원로 200,053-620-0001,2021-07-16,2021-08-31,35.8548822436,128.5648324581
343,이월드 여름축제 <호러 어드벤처>,대구광역시 달서구 두류공원로 200,053-620-0001,2021-06-19,2021-08-31,35.8548822436,128.5648324581
344,익산 미륵사지 미디어아트 쇼,전라북도 익산시 금마면 마전길 10,063-223-8101,2021-09-03,2021-10-02,36.0121033013,127.0127797666
345,익산문화재야행,전라북도 익산시 왕궁면 궁성로 666,063-859-5793,2021-11-12,2021-11-14,35.9715781122,127.0557186642
346,익산천만송이국화축제,익산시일원,"063-859-4977, 4334",2021-10-20,2021-11-14,35.9497293979,126.9861254464
347,인제에서 꽃길만 걷자,강원도 인제군 북면 십이선녀탕길 16,1577-8924,2021-10-08,2021-10-24,38.1856540989,128.3062095629
348,인천 개항장 문화재 야행,인천광역시 중구 신포로27번길 80,032-899-7426,2021-11-05,2021-11-07,37.4737642366,126.6215617279
349,인천 펜타포트 락페스티벌,인천광역시 연수구 센트럴로 350,1899-7188,2021-10-09,2021-10-10,37.4078332011,126.6324847807
350,인천국제디자인페어,인천광역시 연수구 센트럴로 123,070-4895-0879,2021-11-25,2021-11-28,37.3881746028,126.6455452451
351,인천국제해양포럼,인천광역시 연수구 센트럴로 123,02-2152-5085,2021-06-30,2021-07-01,37.3881662706,126.6455591327
352,인천여성영화제,인천광역시 미추홀구 미추홀대로 716,032-330-3080,2021-07-08,2021-07-11,37.4613528325,126.6806289059
353,임방울국악제 전국대회,광주광역시 남구 천변좌로338번길 7,062-521-0731~2,2021-10-01,2021-10-04,35.1479801537,126.9086639556
354,전남국제수묵비엔날레,전라남도 목포시 남농로 102,061-280-5872,2021-09-01,2021-10-31,34.7917871569,126.4182854798
355,전라감영이 돌아왔다,전라북도 전주시 완산구 전라감영로 55,063-232-9938,2021-05-08,2021-06-27,35.8166417663,127.1459424630
356,전라북도 거리극축제 노상놀이야,전라북도 전주시 완산구 기린대로 99,063-236-1577,2021-05-15,2021-10-30,35.8183333748,127.1536778411
357,전쟁기념관 현충일 온라인 그림그리기 대회,서울특별시 용산구 이태원로 29,"02-709-3143, 3145",2021-06-01,2021-06-30,37.5373270838,126.9784385198
358,전주 경기전 '수복청 상설공연',전라북도 전주시 완산구 태조로 44,063-232-9938,2021-05-22,2021-10-10,35.8162807559,127.1493699447
359,전주 한옥마을 경기전 '왕과의 산책',전라북도 전주시 완산구 태조로 44,063-232-9938,2021-05-22,2021-10-02,35.8162252063,127.1493588361
360,전주 한옥마을 '경기전 사람들',전라북도 전주시 완산구 태조로 44,063-232-9938,2021-05-22,2021-10-02,35.8162807559,127.1493699447
361,전주 한지문화축제,전라북도 전주시 완산구 현무1길 20,063-271-2503,2021-05-05,2021-05-07,35.8206802363,127.1482671501
362,전주국제영화제,전라북도 전주시 완산구 전주객사4길 46,063-288-5433,2021-04-29,2021-05-08,35.8200080116,127.1437203505
363,전주대사습놀이,전라북도 전주시 완산구 풍남문4길 27,063-252-6792,2021-05-15,2021-05-31,35.8148836206,127.1451981307
364,전주독서대전,전라북도 전주시 완산구 전주천동로 20,전주시 책의도시인문교육본부 책의도시여행과 책읽는도시팀063-230-1859,2021-10-08,2021-10-14,35.8122508208,127.1586775554
365,전주문화재야행,전라북도 전주시 완산구 태조로 44,063-232-9937,2021-10-22,2021-10-23,35.8162807559,127.1493699447
366,전주세계소리축제,전라북도 전주시 덕진구 소리로 31,063-232-8394,2021-09-29,2021-10-03,35.8553233330,127.1376921847
367,전주역사박물관 설날 세시풍속 한마당,전라북도 전주시 완산구 쑥고개로 259,063-228-6485,2021-02-11,2021-02-14,35.8012592666,127.0930836796
368,"전주한복문화주간 ""전주한복결""",전라북도 전주시 완산구 경기전길 29-13,010-9682-2789,2021-10-11,2021-10-17,35.8182722203,127.1507947659
369,"전통의 전주, 살아있는 전라감영",전라북도 전주시 완산구 전라감영로 55,063-236-1577,2021-07-01,2021-09-30,35.8166417663,127.1459424630
370,젊은안무자창작공연,서울특별시 양천구 목동서로 225,"02-744-8066, 070-5213-0038/2806",2021-04-14,2021-04-21,37.5271541181,126.8707958384
371,정서진피크닉클래식,인천광역시 서구 염곡로464번길 15,032-510-6044~5,2021-08-27,2021-10-31,37.5264450979,126.6711196278
372,정선 아라리촌 놀이마당,강원도 정선군 정선읍 애산로 37,033-560-3016,2021-07-03,2021-09-04,37.3741912507,128.6715123775
373,정선아리랑극 아리아라리,강원도 정선군 정선읍 애산로 51,033-560-3017,2021-04-02,2021-11-27,37.3763882199,128.6715234213
374,정선인형극제,강원도 정선군 정선읍 애산로 165,아라리인형의집 033-563-9667,2021-08-26,2021-08-28,37.3880396656,128.6721063518
375,정읍사문화제,전라북도 정읍시 정읍사로 541,063-532-8880,2021-09-25,2021-09-26,35.5507170954,126.8615801738
376,정조대왕 능행차 공동재현,온라인 개최,031-290-3600,2021-10-09,2021-11-07,37.2810769133,127.0152812635
377,제 2회 GSAF 광주소셜아트페스티벌,광주광역시 동구 구성로 263,010-7143-8263,2021-10-02,2021-10-02,35.1577153417,126.9190988997
378,제 21회 삼랑성역사문화축제,인천광역시 강화군 길상면 전등사로 37-41,032-937-0125,2021-10-02,2021-10-10,37.6321461675,126.4843809763
379,제1회 같음 예술제 '뉴 스타 뮤지션',서울특별시 강남구 논현로175길 49,010-3822-4178,2021-08-13,2021-08-14,37.5244072161,127.0260151081
380,제11회 세계인권도시포럼,광주광역시 동구 중앙로196번길 5,062-226-2734,2021-10-07,2021-10-10,35.1504161271,126.9167853986
381,제12회 온라인 대전효문화뿌리축제,온라인 개최,042-606-6293,2021-09-09,2021-10-10,36.2841704586,127.3870029779
382,제12회 유성국화전시회,대전광역시 유성구 어은로 27,042-611-2678,2021-10-02,2021-10-24,36.3607306283,127.3577063021
383,제13회 온라인 사천시농업한마당축제,온라인개최,055-831-3760,2021-10-28,2021-10-31,35.0034719462,128.0639327035
384,제17회 서울와우북페스티벌,서울특별시 마포구 토정로11길 60,02-336-1585,2021-09-27,2021-10-03,37.5461611851,126.9235460497
385,제17회 선인장페스티벌,서울특별시 강남구 영동대로 513,031-229-6177,2021-10-20,2021-10-24,37.5117148467,127.0594429796
386,제18회 부산 동구 차이나타운 특구 문화축제,부산광역시 동구 대영로239번길 56-1,051-440-4062,2021-10-15,2021-10-31,35.1145576333,129.0380836370
387,제18회 자라섬재즈페스티벌,경기도 가평군 가평읍 달전리 1-1,031-581-2813~4,2021-11-05,2021-11-07,37.8104943540,127.5354271394
388,"제18회 호러와 함께, 2021 대구국제힐링공연예술제",대구광역시 남구 계명중앙1길 38,053-255-2555,2021-07-30,2021-10-31,35.8560490918,128.5818559260
389,제2회 섬의 날,통영 도남관광지,055-650-0562,2021-08-06,2021-08-08,34.8257123112,128.4334856538
390,제2회 용인시 평생학습 박람회,경기도 용인시 처인구 중부대로 1199,02-576-5313,2021-10-27,2021-11-05,37.2413038669,127.1775065552
391,제20회 부산과학축전,부산광역시 동구 범일로 85,051-714-3189,2021-10-02,2021-10-10,35.1378081929,129.0589422993
392,제21회 소래포구 비대면 축제,인천광역시 남동구 장도로 86-17,032-453-2142,2021-10-22,2021-11-21,37.3979806750,126.7393253184
393,제21회 한성백제문화제 대백제전,서울특별시 송파구 올림픽로 424,02-2147-2800,2021-10-08,2021-10-10,37.5194456386,127.1224425827
394,제23회 정동문화축제,서울특별시 중구 정동길 2,02-3701-1603,2021-10-18,2021-10-22,37.5680705690,126.9692551537
395,제24회 서울세계무용축제 SIDance2021,서울특별시 마포구 월드컵북로5길 56,02-3216-1185,2021-10-16,2021-11-14,37.5563487524,126.9158492418
396,제25회 서울국제만화애니메이션페스티벌(SICAF),서울특별시 마포구 월드컵로 240,02-6925-0095,2021-10-01,2021-10-04,37.5683081417,126.8972867084
397,제25회 제천박달가요제,제천시 고암동 643번지,043-645-4997,2021-10-16,2021-10-16,37.1624821694,128.2242893718
398,제4회의성슈퍼푸드마늘축제,경상북도 의성군 의성읍 동서1길 47,054-833-8550,2021-10-08,2021-10-10,36.3499257681,128.6993121755
399,제42회 생거진천 온라인 문화축제,온라인개최,043-533-2742 / 2744,2021-10-01,2021-10-03,36.8388809865,127.4938781562
400,제48회 신라문화제,경상북도 경주시 알천북로 1,054-760-2623,2021-10-12,2021-10-17,35.8625905532,129.2061314352
401,제5차 유네스코 학습도시 국제 컨퍼런스(ICLC),인천광역시 연수구 센트럴로 123,032-749-8422,2021-10-27,2021-10-30,37.3881746028,126.6455452451
402,제5회 라라라 페스티벌,부산광역시 금정구 중앙대로 1777,051-519-4422,2021-10-15,2021-10-24,35.2431081204,129.0921281890
403,제5회 온&오프 예산장터 삼국축제,충청남도 예산군 예산읍 천변로90번길 3,041-335-2441,2021-11-03,2021-11-07,36.6768657905,126.8398331611
404,제5회 2021 온라인 김포 아라마린 페스티벌,경기도 김포시 고촌읍 아라육로270번길 74,031-999-7831~4,2021-09-04,2021-09-05,37.5977083101,126.7869848326
405,제55회 처용문화제,태화강 남구둔치 일원,052-270-9305,2021-10-28,2021-10-31,35.5504831920,129.3076730645
406,제56회 설악문화제,강원도 속초시 설악산로 1055,033-636-0670,2021-10-08,2021-10-12,38.1728758547,128.4928624294
407,제6회 부천세계비보이대회(BBIC),온라인개최,032-625-3111,2021-09-10,2021-09-12,37.4846908118,126.7823328711
408,제7회 동편제 국악 축제,네이버TV 온라인 생중계,02-966-6563,2021-10-02,2021-10-03,35.4575258703,127.5626871293
409,제9회 서울커피앤티페어,서울특별시 서초구 강남대로 27,02-588-2489,2021-10-28,2021-10-31,37.4683111849,127.0390127336
410,제주 설문대할망 페스티벌,제주특별자치도 제주시 조천읍 남조로 2023,제주돌문화공원 064-710-7731,2021-05-14,2021-05-31,33.4501574363,126.6584403292
411,제주 유채꽃축제,온라인개최,064-760-3946,2021-04-06,2021-04-08,33.3830799862,126.7363323235
412,제주 한림공원 부겐빌레아 축제,제주특별자치도 제주시 한림읍 한림로 300,064-796-0001,2021-05-22,2021-06-20,33.3902018773,126.2397419496
413,"제주 허브동산 ""별빛놀이"" 2021",제주특별자치도 서귀포시 표선면 돈오름로 170,064-787-7362~3,2021-01-01,2021-12-31,33.3291149802,126.8147712030
414,제주국제관악제,제주특별자치도 제주시 동광로 90,064-722-8704,2021-12-03,2021-12-07,33.5048855642,126.5377440121
415,제주민속촌 귀몽아일랜드,제주특별자치도 서귀포시 표선면 민속해안로 631-34,02-1522-2089,2021-07-30,2021-10-10,33.3213690665,126.8430383774
416,제주민속촌 설맞이 민속체험행사,제주특별자치도 서귀포시 표선면 민속해안로 631-34,064-787-4501,2021-02-11,2021-02-14,33.3218273297,126.8418190282
417,제주민속촌 수국축제,제주특별자치도 서귀포시 표선면 민속해안로 631-34,064)787-4501,2021-06-07,2021-06-30,33.3213162956,126.8431022619
418,제주유리의성 별빛축제 야간개장,제주특별자치도 제주시 한경면 녹차분재로 462,064-772-7777,2021-07-24,2021-08-29,33.3146635422,126.2736712376
419,제주카페스타 (JEJU CAFESTA),제주특별자치도 서귀포시 중문관광로 224,064-711-1002,2021-06-03,2021-06-06,33.2412740186,126.4244958917
420,제주해비치아트페스티벌,제주특별자치도 서귀포시 표선면 민속해안로 537,02-3019-5853~6,2021-11-22,2021-11-25,33.3215135225,126.8447465590
421,제천국제음악영화제,충청북도 제천시 의병대로12길 14-1,043-646-2242,2021-08-12,2021-08-17,37.1370097654,128.2063056198
422,제천의병제,충청북도 제천시 봉양읍 공전리 476-1,043-646-3646,2021-10-15,2021-10-16,37.0990785573,128.0860814109
423,조치원봄꽃축제,온라인개최,044-301-5052,2021-04-01,2021-04-11,36.6046016278,127.2984771905
424,종묘대제,서울특별시 종로구 종로 157,02-3210-4803,2021-05-02,2021-05-02,37.5742897425,126.9944471257
425,주문진 음악불꽃크루즈 2021,강원도 강릉시 주문진읍 해안로 1730,1522-8905,2021-01-01,2021-12-31,37.8895291758,128.8285935985
426,지용제,충청북도 옥천군 옥천읍 상계리 16,043-730-3402,2021-10-14,2021-10-17,36.3187144403,127.5827401123
427,진도신비의바닷길 온라인 축제,온라인개최,061-540-3407,2021-04-27,2021-04-29,34.4227524921,126.3489392759
428,진도토요민속여행 상설공연,전라남도 진도군 진도읍 진도대로 7197,061-544-8978,2021-03-01,2021-12-31,34.4795198452,126.2698698980
429,진안고원 운장산 고로쇠축제,온라인개최,063-430-2391~3 / 063-430-8384,2021-03-08,2021-03-12,35.9838408705,127.3889108687
430,진주 개천예술제,경상남도 진주시 남강로 626,055-752-0111,2021-11-07,2021-11-14,35.1935119571,128.0780681464
431,진주 논개제,경상남도 진주시 남강로 626,055-746-5081,2021-05-01,2021-05-05,35.1904345642,128.0802485914
432,진주 무형문화재 토요상설공연,경상남도 진주시 남강로 626,문화예술과 055-749-5312,2021-04-03,2021-07-31,35.1904345642,128.0802485914
433,창덕궁 달빛기행,서울특별시 종로구 율곡로,02-3210-3503,2021-04-29,2021-06-20,37.5828248057,126.9913388341
434,창무국제공연예술제,서울특별시 강동구 동남로 870,070-4264-8252,2021-08-25,2021-08-29,37.5512370251,127.1574857118
435,창원 고향의 봄 예술제,경상남도 창원시 의창구 중앙대로 181,055-267-5599,2021-04-03,2021-04-30,35.2300938039,128.6869944309
436,천안흥타령춤축제 [Cheonan World Dance Festival] 2021,충청남도 천안시 동남구 삼룡동 306-1,041-900-7392,2021-09-29,2021-10-03,36.7822983153,127.1671896816
437,청년의 날 2021,서울특별시 송파구 올림픽로 424,02-780-3939,2021-11-06,2021-11-06,37.5209871362,127.1229758237
438,청도 프로방스 빛축제,경상북도 청도군 화양읍 이슬미로 272-23,054-372-5050,2021-01-20,2021-11-30,35.6841432611,128.7182098166
439,청소년 무대 예술 페스티벌,대구광역시 달서구 공원순환로 201,053-651-5028,2021-08-07,2021-08-07,35.8451165839,128.5594887553
440,청춘페스티벌,서울특별시 마포구 한강난지로 162,02-722-9303,2021-09-25,2021-09-26,37.5629224452,126.8854490504
441,춘천 애니타운 페스티벌 (CAF),강원도 춘천시 서면 박사로 854,033-245-6000,2021-05-05,2021-05-23,37.8930320971,127.6918410158
442,"춘천 커피도시 페스타 Let's COFFEE, 춘천",강원도 춘천시 서면 박사로 854,033-245-6770,2021-09-03,2021-09-19,37.8930876473,127.6918882316
443,춘천 토이 페스티벌,강원도 춘천시 서면 박사로 854,033-245-6770,2021-06-05,2021-06-20,37.8930320971,127.6918410158
444,춘천공연예술제,강원도 춘천시 춘천로281번길 15,033-251-0545,2021-07-13,2021-08-21,37.8815871604,127.7430200289
445,춘천연극제,강원도 춘천시 서부대성로 71,033-241-4345,2021-07-06,2021-10-30,37.8825368301,127.7312071874
446,춘천인형극제,강원도 춘천시 영서로 3017,033-242-8452,2021-05-29,2021-12-23,37.9216376309,127.7202320249
447,충주 문화재 야행,충청북도 충주시 중앙탑면 감노로 2319,043-723-1350,2021-10-01,2021-10-02,37.0283378604,127.8482825992
448,칠갑산얼음분수축제 2021,충청남도 청양군 정산면 천장호길 175-11,041-942-0797~8,2020-12-24,2021-02-21,36.4094728367,126.9160529131
449,코리아그랜드세일 2021,온라인개최,02-550-2533,2021-01-14,2021-02-28,37.5720426096,126.9848758397
450,탐라국입춘굿놀이 2021,온라인개최,064-758-0332,2021-02-02,2021-02-03,33.5133454804,126.5215257854
451,탐라문화제,제주특별자치도 제주시 동광로 51,064-753-3287,2021-10-06,2021-10-10,33.5032134683,126.5340304840
452,태안 가을꽃 박람회,충청남도 태안군 안면읍 꽃지해안로 400,041-675-5533,2021-09-17,2021-10-31,36.5011689948,126.3367943161
453,태안 빛축제 2021,충청남도 태안군 남면 마검포길 200,041-675-9200,2021-01-01,2021-12-31,36.6151330244,126.2998807800
454,태안 세계튤립꽃박람회,충청남도 태안군 안면읍 꽃지해안로 400,041-675-5533,2021-04-09,2021-05-10,36.5011023351,126.3367804299
455,태안 수선화&루피너스 꽃 박람회,충청남도 태안군 남면 마검포길 200,041-675-9200,2021-04-01,2021-04-20,36.6151330244,126.2998807800
456,태안꽃정원 #여름-가을꽃,충청남도 태안군 남면 마검포길 200,041-675-9200,2021-07-14,2021-09-30,36.6164717773,126.3009584253
457,태화강공연축제 나드리,울산광역시 중구 태화강국가정원길 107,052-270-9304,2021-10-15,2021-10-18,35.5519493066,129.2871025957
458,태화강국제설치미술제,울산광역시 남구 북부순환도로 17,052-220-0611,2021-10-14,2021-10-31,35.5517322564,129.2653794980
459,토요명품공연,서울특별시 서초구 남부순환로 2364,02-580-3300,2021-01-09,2021-12-18,37.4776567975,127.0097651306
460,통영 국제음악제,경상남도 통영시 큰발개1길 38,055-650-0400,2021-03-26,2021-04-04,34.8259957306,128.4400711845
461,통영연극예술축제,경상남도 통영시 남망공원길 29,055-645-6379,2021-07-09,2021-07-18,34.8451571899,128.4240026354
462,파주 눈내리는 초리골 축제 2021,경기도 파주시 법원읍 초리골길 138-9,031-958-8880,2021-01-04,2021-02-14,37.8522416263,126.8906847990
463,파주 마장계곡 송어축제 2021,경기도 파주시 광탄면 마장리 421-1,031-962-6321 / 031-948-3933,2020-12-22,2021-02-28,37.7761447494,126.8799157350
464,파주송어축제 2021,경기도 파주시 광탄면 부흥로 194-42,1522-1531,2021-01-01,2021-02-14,37.8009083125,126.8678189133
465,파주출판도시 어린이책잔치,온라인개최,031-955-0062,2021-05-05,2021-05-09,37.7086519413,126.6866936546
466,판타스틱(Fanta-Stick),서울특별시 종로구 대학로 146 석정홀딩스,02-3143-5959,2021-01-01,2021-12-31,37.5843109371,127.0020489267
467,퍼스트가든 빛축제 - 별빛이 흐르는 정원 2021,경기도 파주시 탑삭골길 260,031-957-6861,2021-01-01,2021-12-31,37.7326399636,126.7949386312
468,평강랜드 수국축제,경기도 포천시 영북면 우물목길 171-18,031-5332-1779,2021-04-24,2021-08-24,38.0500344386,127.3062049175
469,평강랜드 핑크뮬리 축제,경기도 포천시 영북면 우물목길 171-18,031-532-1779,2021-09-30,2021-11-21,38.0500344386,127.3062049175
470,평창국제평화영화제,강원 평창군 대관령면 횡계리 707,033-244-5500,2021-06-17,2021-06-22,37.6712604185,128.7071418322
471,평창대관령음악제,강원도 평창군 대관령면 솔봉로 325,033-240-1363,2021-07-28,2021-08-07,37.6646525475,128.6915128866
472,포항스틸아트페스티벌,경상북도 포항시 북구 두호동 1015-6,054.289.7853/7855~7,2021-10-16,2021-10-30,35.9686102364,129.4105438090
473,플라잉(FLYing),경상북도 경주시 경감로 614,054-775-0815,2021-04-01,2021-12-31,35.8315650725,129.2892916998
474,피나클랜드 국화축제,충청남도 아산시 영인면 월선길 20-42,041-541-2582,2021-10-15,2021-11-20,36.8725086623,126.9263617137
475,피란수도 부산 문화재 야행,부산광역시 서구 임시수도기념로,070-5154-9943,2021-10-01,2021-10-02,35.1032530039,129.0196549929
476,하남 이성산성문화축제,경기도 하남시 신평로 125,031-790-7926,2021-09-25,2021-11-06,37.5447470040,127.2068036316
477,하동 야생차문화축제,경상남도 하동군 화개면 쌍계로 571-25,055-880-2052~4,2021-05-15,2021-05-23,35.2325139254,127.6507963337
478,하이브리드 한강나이트워크42K,온라인 개최,070-4705-2008,2021-10-01,2021-10-17,37.5277830039,126.9368897969
479,한-러 수교 30주년 기념 디지털 아트 동화 특별전 2020,제주특별자치도 제주시 애월읍 애월해안로 516-7,064-799-7578,2019-11-03,2021-02-03,33.4773135604,126.3592296033
480,한·아세안 미식만찬 2021,부산광역시 해운대구 좌동로 162,051-775-2026,2021-01-16,2021-02-21,35.1751757315,129.1820750100
481,한국국제가구 및 인테리어산업대전,경기도 고양시 일산서구 킨텍스로 217-59,031-991-5300,2021-10-28,2021-10-31,37.6650330327,126.7435146865
482,한국국제아트페어,서울특별시 강남구 영동대로 513,02-733-3706~8,2021-10-15,2021-10-17,37.5118092746,127.0591318945
483,한국문화축제,경기도 고양시 일산서구 킨텍스로 217-60,02-584-8173,2021-11-13,2021-11-14,37.6691714862,126.7461032221
484,한국민속촌 꽃놀이,경기도 용인시 기흥구 민속촌로 90,031-288-0000,2021-04-24,2021-06-20,37.2594535228,127.1205723175
485,한국민속촌 웰컴투조선,경기도 용인시 기흥구 민속촌로 90,031-288-0000,2021-04-03,2021-06-20,37.2593868634,127.1205445440
486,한국민속촌 정월맞이행사,경기도 용인시 기흥구 민속촌로 90,031-288-0000,2021-02-11,2021-03-01,37.2593868634,127.1205445440
487,한국민속촌 특별공연 '연분',경기도 용인시 기흥구 민속촌로 90,031-288-0000,2021-05-01,2021-10-31,37.2594535228,127.1205723175
488,한국민속촌 '달빛을 더하다',경기도 용인시 기흥구 민속촌로 90,031-288-0000,2021-05-01,2021-10-31,37.2594535228,127.1205723175
489,한국민속촌 '추석이 왔어요',경기도 용인시 기흥구 민속촌로 90,031-288-0000,2021-09-18,2021-09-22,37.2594535228,127.1205723175
490,한국민속촌 '풍요로운 낭만조선',경기도 용인시 기흥구 민속촌로 90,031-288-0000,2021-09-11,2021-11-07,37.2594535228,127.1205723175
491,한국음식관광박람회,서울특별시 서초구 강남대로 27,02-737-2210,2021-05-20,2021-05-22,37.4686111452,127.0387710802
492,한국의집 전통예술공연 KOREA 심청,서울특별시 중구 퇴계로36길 10,02-2266-9101~3,2021-01-01,2021-12-31,37.5601774962,126.9945752914
493,한라산 청정 고사리 축제,제주특별자치도 서귀포시 남원읍 태위로 695,"760-4181~2, 4126",2021-04-14,2021-04-30,33.2799383418,126.7207249076
494,한림공원 매화축제 2021,제주특별자치도 제주시 한림읍 한림로 300,064-796-0001,2021-02-06,2021-02-28,33.3902018773,126.2397419496
495,한림공원 수국축제,제주특별자치도 제주시 한림읍 한림로 300,064-796-0001~4,2021-06-01,2021-06-27,33.3902018773,126.2397419496
496,한림공원 연꽃축제,제주특별자치도 제주시 한림읍 한림로 300 한림공원,064-796-0001,2021-07-01,2021-08-31,33.3902018773,126.2397419496
497,한림공원 튤립축제,제주특별자치도 제주시 한림읍 한림로 300,064-796-0001,2021-03-25,2021-04-11,33.3897241270,126.2381087692
498,한복문화주간,서울특별시 종로구 율곡로 33,02-398-1621,2021-10-11,2021-10-17,37.5759615737,126.9834786336
499,한양도성문화제,서울특별시 중구 회현동1가 100-267,070-4916-9097,2021-10-01,2021-10-10,37.5539085600,126.9823071428
500,한일축제한마당 in Seoul,온라인개최,02-702-7775,2021-09-05,2021-09-05,37.5117592813,127.0591874466
501,함안수박 온라인축제,경상남도 함안군 가야읍 함안대로 755,031-792-6687,2021-04-23,2021-05-02,35.2940508357,128.3987956928
502,해남 땅끝매화축제,온라인개최,061-530-5158,2021-03-13,2021-03-14,34.6245261535,126.4633855169
503,해남 초의문화제,전라남도 해남군 해남읍 군청길 4,061-535-0986,2021-10-15,2021-10-16,34.5735424396,126.5992608873
504,해운대 모래작품 전시회,부산광역시 해운대구 중동1411-23,051-749-4061~3,2021-05-05,2021-05-09,35.1595632252,129.1623632643
505,해운대 북극곰 축제,부산광역시 해운대구 해운대해변로 280,051-731-1509,2021-06-11,2021-06-20,35.1595354549,129.1626049105
506,해운대 빛축제 2021,"부산광역시 해운대구 해운대해수욕장, 구남로 일원",051-749-4061~3,2021-02-15,2021-03-28,35.1600603681,129.1610994719
507,허브아일랜드 라벤더축제,경기도 포천시 신북면 청신로947번길 35,031-535-6494,2021-07-03,2021-08-31,37.9659160606,127.1316789055
508,허브아일랜드 불빛동화축제 2021,경기도 포천시 신북면 청신로947번길 35,031-535-6494,2021-01-01,2021-12-31,37.9659160606,127.1316789055
509,"호남제일성, 전라감영 역사의 울림",전라북도 전주시 완산구 동문길 115-2,063-232-1902,2021-07-03,2021-10-11,35.8177277863,127.1478144896
510,홈라이프스타일쇼,광주광역시 서구 상무누리로 30,0662-611-3501~3,2021-10-21,2021-10-24,35.1467180358,126.8405588979
511,홈케어·재활·복지 전시회,서울특별시 강남구 영동대로 513,02-881-5151,2021-10-07,2021-10-09,37.5117148467,127.0594429796
512,홍가시나무 천국 페스티벌,충청남도 태안군 남면 연꽃길 70,041-675-0656,2021-04-16,2021-05-30,36.6865664156,126.2973902397
513,홍성 남당항 새조개 온라인축제 2021,온라인개최,041-634-0104,2021-01-23,2021-03-31,36.5394807577,126.4703451469
514,홍성 역사인물축제 2021,충청남도 홍성군 홍성읍 아문길 27,041-630-1227~8,2021-05-14,2021-05-16,36.6013102581,126.6607707762
515,홍성남당항대하축제,충청남도 홍성군 서부면 남당항로 213-1,041-634-0104,2021-08-28,2021-10-30,36.5395946637,126.4721144284
516,홍천산나물축제,강원도 홍천군 서면 어유포리 317-4,033-439-5853,2021-04-16,2021-05-09,37.7028931641,127.6959601437
517,홍천찰옥수수축제,강원도 홍천군 홍천읍 설악로 1265,033-439-5853,2021-07-23,2021-08-01,37.6682389118,127.8484556568
518,화성행궁 생생문화재 <달달한 행궁로망스>,경기도 수원시 팔달구 정조로 825,031-290-3574,2021-05-01,2021-05-22,37.2819295766,127.0144035414
519,화성행궁 야간개장,경기도 수원시 팔달구 정조로 825,031-290-3600,2021-05-01,2021-10-31,37.2819295766,127.0144035414
520,황순원문학제,경기도 양평군 서종면 소나기마을길 24,031-773-2299,2021-09-10,2021-09-12,37.5945387829,127.3781032925
521,황토현동학농민혁명기념제,전라북도 정읍시 덕천면 하학리 산3-5,063-538-1894,2021-05-08,2021-05-08,35.6336515335,126.8270977887
522,회남재 숲길 걷기,경상남도 하동군 청암면 삼성궁길 2,055-880-2053,2021-10-23,2021-11-07,35.2387419579,127.7054469178
523,휴애리 동백축제 2020,제주특별자치도 서귀포시 남원읍 신례동로 256,064-732-2114,2020-11-13,2021-01-31,33.3085171454,126.6344317363
524,휴애리 매화축제,제주특별자치도 서귀포시 남원읍 신례동로 256,064-732-2114,2021-02-19,2021-02-28,33.3085171454,126.6344317363
525,휴애리 핑크뮬리 축제,제주특별자치도 서귀포시 남원읍 신례동로 256,064-732-2114,2021-09-10,2021-11-14,33.3085171454,126.6344317363
526,휴애리유럽수국축제,제주특별자치도 서귀포시 남원읍 신례동로 256,064-732-2114,2021-04-01,2021-09-12,33.3085171454,126.6344317363
527,'나미콩쿠르' 수상작 展,강원도 춘천시 남산면 남이섬길 1,031-580-8193,2021-05-01,2023-03-31,37.7901326639,127.5262424616
528,2021괴산김장축제,충청북도 괴산군 괴산읍 임꺽정로 99-9,043-830-3464,2021-11-05,2021-11-07,36.8138669413,127.7861109429
529,2021남이섬 세계책나라축제,강원도 춘천시 남산면 남이섬길 1,"031-580-8193, 8015",2021-05-01,2021-05-16,37.7901159965,127.5261035858
530,2021서울국제불교박람회,서울특별시 강남구 남부순환로 3104,02-2231-2013,2021-11-11,2021-11-14,37.4957363721,127.0719811806
531,2021온라인경북영주풍기인삼축제,온라인개최,054-635-0020,2021-10-01,2021-10-17,36.8719154882,128.5167077783
532,2021제천한방바이오박람회,충청북도 제천시 한방엑스포로 19,043-647-2695,2021-10-27,2021-11-01,37.1436970141,128.1597318307
533,2021춘천 한국지역도서전,강원도 춘천시 옛경춘로 880,033-251-3474,2021-10-08,2021-10-10,37.8733375540,127.7126313732
534,2021함양산삼항노화엑스포,경상남도 함양군 함양읍 필봉산길 55,055-964-3382,2021-09-10,2021-10-10,35.5247544066,127.7222907130
535,2021 강릉문화재야행,강원도 강릉시 임영로131번길 6,033-823-3212,2021-11-11,2021-11-13,37.7532767444,128.8921226461
536,2021 강원홍천 인삼한우 명품축제 온라인 판매행사,온라인개최,033)439-5853,2021-10-06,2021-10-24,37.6904094123,127.8939814286
537,2021 강화문화재야행 ‘고려의 밤을 품다’,인천 강화군 강화읍 관청리 405,032-930-3569,2021-10-01,2021-10-03,37.7487798121,126.4855109540
538,2021 건강서울페스티벌,온라인개최,070-7575-2351,2021-10-15,2021-10-22,37.4826644710,127.0053765000
539,2021 경기 다독다독 축제,경기도 수원시 팔달구 효원로 1,02-502-5953,2021-10-01,2021-10-01,37.2750552749,127.0089181203
540,2021 경주문화재야행,경북 경주시 교동 71,054-779-6102,2021-10-22,2021-10-24,35.8314720272,129.2157786981
541,"2021 김포버스킹 ""올댓버스킹 인 김포""",경기도 김포시 돌문로 26,031-996-7646,2021-10-08,2021-10-10,37.6189990881,126.7201431169
542,2021 김포평화축제［김포평화 비전콘서트］,경기도 김포시 모담공원로 170,031-996-7643,2021-10-02,2021-10-02,37.6467926425,126.6958112268
543,2021 남구 청년예술제 해야청청,대구광역시 남구 앞산순환로 478,070-4447-4357,2021-10-08,2021-10-10,35.8313434631,128.5768987154
544,2021 대전 사이언스페스티벌,대전광역시 유성구 대덕대로512번길 30,070-7734-3526,2021-10-22,2021-10-26,36.3788067615,127.3815647884
545,2021 로보월드,경기도 고양시 일산서구 대화동2600,070-8872-9243,2021-10-27,2021-10-30,37.6687048419,126.7443145103
546,2021 메타버스 서울안전한마당,서울특별시 중구 을지로 281,02-3706-1561,2021-09-15,2021-09-17,37.5675991318,127.0099486810
547,2021 목포문화재 야행(夜行),전라남도 목포시 영산로29번길 6,061-270-8321,2021-10-08,2021-10-10,34.7877370151,126.3817999111
548,2021 보드게임콘,서울특별시 강남구 남부순환로 3104,(사)한국보드게임산업협회 사무국 070-8611-9803,2021-11-20,2021-11-21,37.4957363721,127.0719811806
549,2021 보은대추 온라인축제,온라인개최,043-540-3393,2021-10-15,2021-10-31,36.4863477960,127.7232423965
550,2021 부산국제관광박람회 (Busan International Travel Exhibition 2021),부산광역시 해운대구 APEC로 55,02-757-6161,2021-09-16,2021-09-19,35.1690700054,129.1359569660
551,2021 부산금정거리예술축제,온라인개최,051)711-7138,2021-10-22,2021-10-24,35.2460022847,129.0945167909
552,2021 북촌의 날 '100년지기(百年知己)',서울특별시 종로구 계동길 37,02-741-1033,2021-10-15,2021-10-24,37.5791307002,126.9862893990
553,2021 브릭아트페스타 (Brick Art Festa),강원도 춘천시 서면 박사로 882,070-7732-6280(사무국) / 033-269-8939 (주관사),2021-10-02,2021-10-04,37.8951540906,127.6927991992
554,"2021 서울국악축제 <서울 속의 국악, 국악 속의 서울!>",온라인개최,070-4185-4527,2021-10-16,2021-10-17,37.5585082277,126.9935754302
555,2021 서울안보대화(SEOUL DEFENSE DIALOGUE 2021),서울특별시 용산구 소월로 322,02-6000-8189,2021-09-08,2021-09-10,37.5396549325,126.9974672756
556,2021 서울청년예술축제 판뙤(되)기,온라인개최,070-8156-6330,2021-10-01,2021-10-03,37.6908326881,127.0468279220
557,2021 서울청년주간,서울특별시 중구 세종대로 110,02-731-2120,2021-09-11,2021-09-17,37.5666625635,126.9784043599
558,2021 성남 e스포츠(SeN) 페스티벌,경기도 성남시 분당구 성남대로331번길 8,031-782-3096,2021-10-15,2021-10-17,37.3659992658,127.1066483621
559,2021 아세안 마켓,부산광역시 해운대구 좌동로 162,051-775-2000,2021-10-08,2021-10-10,35.1751757315,129.1820750100
560,2021 안성맞춤 남사당 바우덕이 축제(비대면),경기도 안성시 보개면 남사당로 198-2,031-678-2511~5,2021-10-01,2021-10-10,37.0318776686,127.3101782044
561,2021 양구 곰취축제,강원도 양구군 양구읍 박수근로 366-33,033-480-2229,2021-05-05,2021-05-08,38.1061821797,127.9824470365
562,2021 옥천문화재야행,충청북도 옥천군 옥천읍 향수길 100,043-730-3724,2021-10-08,2021-10-09,36.3163647524,127.5851621824
563,2021 울산아시아퍼시픽뮤직미팅(2021 울산에이팜),울산광역시 남구 돋질로 69,052-270-9306,2021-10-01,2021-10-03,35.5386568556,129.3136256561
564,2021 의좋은 형제 축제,충청남도 예산군 대흥면 의좋은형제길 3,010-3977-4317,2021-11-06,2021-11-07,36.6065758233,126.7922087858
565,2021 전국생활문화축제,온라인개최,"054-289-2871, 02-730-2457",2021-10-04,2021-10-10,36.0096380848,129.3660687459
566,2021 전주비빔밥축제 월드비빔위크,전라북도 전주시 완산구 경기전길 29-13,010-9682-2789,2021-10-09,2021-10-31,35.8182722203,127.1507947659
567,2021 제29회 영도다리축제,온라인 개최,051-403-1861/ 051-419-4064,2021-10-15,2021-10-17,35.0752681078,129.0664155786
568,2021 제9회 군산시간여행축제,전북 군산시 중앙로1가 11-1,063-454-3302,2021-10-09,2021-10-31,35.9878092242,126.7116906420
569,2021 제주올레걷기축제 (2021 Jeju Olle Walking Festival),제주특별자치도 서귀포시 중정로 22,064-762-2190,2021-10-22,2021-11-16,33.2474337936,126.5586785658
570,2021 제주잇쇼 (2021 JEJU EAT SHOW),온라인 개최,064-711-1002,2021-08-23,2021-10-31,33.4862703456,126.4992561133
571,2021 종로한복축제,온라인개최,02-6263-1185,2021-10-09,2021-10-24,37.5707092077,126.9724103466
572,2021 지평선 추억의 보리밭축제,전라북도 김제시 진봉면 진봉1길 15-3,진봉면사무소 063-540-4781,2021-05-05,2021-05-09,35.8592081580,126.7661390981
573,"2021 청정임산물대축제 ""숲이 온(ON)다, 숲푸드마켓""",서울특별시 강서구 공항대로 475,02-6393-2563,2021-09-06,2021-10-18,37.5536675072,126.8598016498
574,2021 청주공예비엔날레,충청북도 청주시 청원구 상당로 314,070-7777-7636,2021-09-08,2021-10-17,36.6562491662,127.4923972539
575,2021 청주문화재야행,충청북도 청주시 상당구 성안로,043-219-1015 / 043-219-1131,2021-11-13,2021-11-14,36.6329017813,127.4887982220
576,2021 펫츠런,경기도 고양시 일산동구 중앙로 1271-4,02-576-5313,2021-11-12,2021-11-13,37.6579815492,126.7700763468
577,2021 평화 오르 N 아트 설치미술展,경기도 김포시 초당로 40,031-996-7382,2021-10-01,2021-10-17,37.6421816793,126.6738994706
578,2021 푸드앤비어 페스티벌,경기도 고양시 일산동구 중앙로 1271-4,02-576-5313,2021-11-12,2021-11-12,37.6579815492,126.7700763468
579,2021 해남 오시아노 뷰티폴 캠핑 콘서트,전라남도 해남군 화원면 주광리 384,061-530-5158,2021-10-02,2021-10-02,34.6852438501,126.2636989041
580,2021 허왕후신행길 축제,경상남도 김해시 김해대로 2060,055-320-1220,2021-10-08,2021-10-09,35.2440455761,128.8694586807
581,2021 환상마켓 : 지구에게 환心사기 프로젝트,경기도 광명시 일직동 512-3,광명경기문화창조허브 / 02-2680-6948,2021-10-09,2021-10-11,37.4188030241,126.8826616866
582,2021 훈련도감 무예 재현행사,서울 중구 을지로7가 143,02-737-6444,2021-10-02,2021-10-03,37.5669630939,127.0099237012
583,2021 ICLC 세계시민평생학습박람회,인천광역시 연수구 센트럴로 123,032-749-8422,2021-10-29,2021-10-30,37.3881746028,126.6455452451
584,2021 Let's DMZ - DMZ콘서트,경기도 수원시 팔달구 효원로307번길 20,onhongbo@gmail.com,2021-05-22,2021-05-29,37.2619323007,127.0372659151
585,4·19혁명국민문화제,온라인개최,02-901-6206,2021-04-10,2021-04-19,37.6483786128,127.0090436907
586,9.81파크; X리그 2021 정규시즌,제주특별자치도 제주시 애월읍 천덕로 880-24,064-1899-9810,2021-03-01,2021-11-07,33.3900649983,126.3665198188
587,DMZ국제다큐멘터리영화제,경기도 고양시 일산동구 중앙로 1036,1899-8318,2021-09-09,2021-09-16,37.6432308377,126.7896749719
588,DMZ 아트페스타,강원도 춘천시 중앙로 1,문화올림픽 관광안내전화 1330,2021-10-02,2021-10-03,37.8854531307,127.7297711209
589,Delight Seoul 2021,서울특별시 종로구 인사동길 49,02-3444-2208,2020-12-18,2021-06-30,37.5745200760,126.9835703327
590,EBS 국제다큐영화제,경기도 고양시 일산동구 강송로 33,1588-1580,2021-08-23,2021-08-29,37.6430337027,126.7932690937
591,K-일러스트레이션페어 부산 2021,부산광역시 해운대구 APEC로 55,02-761-2512,2021-07-16,2021-07-18,35.1691366711,129.1363402640
592,K-일러스트레이션페어 서울 2021,서울특별시 강남구 영동대로 513,02-761-2512,2021-04-08,2021-04-11,37.5117148467,127.0594429796
593,K-핸드메이드페어 부산 2021,부산광역시 해운대구 APEC로 55,02-761-2512,2021-07-16,2021-07-18,35.1690700054,129.1359569660
594,K-핸드메이드페어 2021,서울특별시 강남구 영동대로 513,02-761-2512,2021-12-09,2021-12-12,37.5118092746,127.0591318945
595,KOREA 월드푸드챔피언십,서울특별시 금천구 서부샛길 606,02)802-7666/7669,2021-11-05,2021-11-07,37.4800458136,126.8770549248
596,KYMF 대한민국청소년미디어대전,서울특별시 용산구 한강대로 255,02-795-8000(내선2번),2021-10-29,2021-10-31,37.5410515470,126.9726361655
597,Let's DMZ 평화예술제,경기도 파주시 문산읍 임진각로 164,letsdmzpaf@gmail.com,2021-05-20,2021-10-31,37.8897734643,126.7417751478
598,MAMF(맘프) 2021,경상남도 창원시 의창구 사화로18번길 30,055)277-8779,2021-10-22,2021-10-24,35.2548756889,128.6076923566
599,MODAFE 2021 (제40회 국제현대무용제),서울특별시 종로구 대학로10길 15-15 해안빌딩 602호,02-763-5351,2021-05-25,2021-06-13,37.5825333800,127.0028600144
600,"NextRise 2021, Seoul",서울특별시 강남구 영동대로 513,070-4640-5994,2021-06-28,2021-06-29,37.5117148467,127.0594429796
601,SIEAF 섬진강국제실험예술제,전라남도 곡성군 죽곡면 강빛마을길 7-10,010-5219-5852,2021-10-30,2021-11-06,35.1406323342,127.3139394782
602,SUMMER FLOWER,경기도 안성시 공도읍 대신두길 28,031-8053-7979,2021-06-18,2021-07-18,36.9920801848,127.1944119888
603,[명예대표축제]김제 지평선축제,온라인개최,063-540-3035~3038,2021-09-29,2021-10-03,35.7539938456,126.8529146250
604,[명예대표축제]진주 남강유등축제,경상남도 진주시 남강로 626,055-755-9111,2021-12-04,2021-12-31,35.1897457534,128.0802763856
605,[문화관광축제]온라인 봉화은어축제,온라인개최,054-674-3053,2021-07-24,2021-08-15,36.8903231162,128.7378736170
606,[문화관광축제]원주 다이내믹댄싱카니발,강원도 원주시 지정면 소금산길 12,033-760-9802~4,2021-10-08,2021-10-24,37.3646293574,127.8340575195
607,[문화관광축제] 대구약령시한방문화축제,대구광역시 중구 남성로 51-1,053-253-4729,2021-10-06,2021-10-10,35.8673230099,128.5923963501
608,[문화관광축제] 산청한방약초축제,온라인개최,055-970-6601~5,2021-09-01,2021-09-30,35.4196966993,127.8718053038
609,[문화관광축제] 수원화성문화제,경기도 수원시 팔달구 정조로 825,031-228-1010,2021-10-08,2021-10-10,37.2872039225,127.0120008348
610,[문화관광축제] 시흥갯골축제,경기도 시흥시 시청로 20,031-310-6749,2021-04-28,2021-10-31,37.3802283072,126.8029477968
611,[문화관광축제] 여주오곡나루축제,경기도 여주시 명품로 360,031-881-9692,2021-11-12,2021-11-14,37.2459334369,127.6122976418
612,[문화관광축제] 연천 구석기축제,경기도 연천군 전곡읍 양연로 1510,031-839-2378,2021-05-22,2021-10-17,38.0122815870,127.0611506837
613,[문화관광축제] 온라인 영암왕인문화축제,온라인개최,061-470-2347,2021-04-01,2021-04-16,34.7566140519,126.6304148351
614,[문화관광축제] 울산옹기축제,울산광역시 울주군 온양읍 외고산길 23,052-980-2232,2021-10-01,2021-10-08,35.4322848446,129.2801648931
615,[문화관광축제] 음성 품바축제,충청북도 음성군 음성읍 설성공원길 28,043-873-2241,2021-10-21,2021-10-24,36.9327654263,127.6910022374
616,[문화관광축제] 임실N치즈축제 2021,전라북도 임실군 성수면 도인2길 50,063-643-3900,2021-10-07,2021-10-10,35.6328486749,127.3012056927
617,[문화관광축제] 제주들불축제,제주 제주시 애월읍 봉성리 산59-8,064-728-2751~6,2021-03-08,2021-03-14,33.3674368137,126.3581488312
618,[문화관광축제] 추억의 충장축제 2021,광주광역시 동구 서남로 1,062-608-2421~4,2021-11-03,2021-11-07,35.1454973445,126.9231294053
619,[문화관광축제] 춘천마임축제,강원도 춘천시 전역,033-242-0585,2021-05-23,2021-11-30,37.8766011603,127.7178558012
620,[문화관광축제] 한산모시문화제,충청남도 서천군 한산면 충절로 1089,041-950-4256,2021-06-11,2021-06-13,36.0799251950,126.7987054614
621,[문화관광축제] 횡성한우축제,온라인개최,1522-1099,2021-10-01,2021-10-15,37.4981056564,127.9871481157
622,[문화관광축제] 2021 온라인 진안홍삼축제,온라인개최,063-430-2391~3,2021-10-08,2021-10-10,35.7732125289,127.4162695779
